denominazione_comune,lat,lon,sigla_provincia,id,id_province
Agliè,45.3634368,7.7685999,TO,1,94
Airasca,44.9168832,7.4844311,TO,2,94
Ala di Stura,45.3151133,7.3043438,TO,3,94
Albiano d'Ivrea,45.4338982,7.9491448,TO,4,94
Almese,45.1176634,7.3951819,TO,5,94
Alpette,45.4099867,7.5785972,TO,6,94
Alpignano,45.0944696,7.5242673,TO,7,94
Andezeno,45.0358599,7.8699487,TO,8,94
Andrate,45.528381,7.8738392,TO,9,94
Angrogna,44.8434461,7.2242923,TO,10,94
Arignano,45.044028,7.9024464,TO,11,94
Avigliana,45.0793571,7.3963234,TO,12,94
Azeglio,45.4248665,7.9947706,TO,13,94
Bairo,45.3862534,7.756918,TO,14,94
Balangero,45.2700324,7.5193095,TO,15,94
Baldissero Canavese,45.408408,7.7444444,TO,16,94
Baldissero Torinese,45.0684227,7.8178077,TO,17,94
Balme,45.302297,7.218314,TO,18,94
Banchette,45.4608553,7.8565637,TO,19,94
Barbania,45.2905029,7.6305109,TO,20,94
Bardonecchia,45.0781688,6.7038239,TO,21,94
Barone Canavese,45.3277288,7.8705562,TO,22,94
Beinasco,45.0220777,7.5791581,TO,23,94
Bibiana,44.7975756,7.2897861,TO,24,94
Bobbio Pellice,44.8077018,7.1179046,TO,25,94
Bollengo,45.4733626,7.9453487,TO,26,94
Borgaro Torinese,45.1519831,7.6578944,TO,27,94
Borgiallo,45.4168178,7.6677336,TO,28,94
Borgofranco d'Ivrea,45.5130128,7.858522,TO,29,94
Borgomasino,45.361555,7.9887996,TO,30,94
Borgone Susa,45.1231397,7.241214,TO,31,94
Bosconero,45.2685663,7.7650698,TO,32,94
Brandizzo,45.1776535,7.8414756,TO,33,94
Bricherasio,44.8255775,7.3028877,TO,34,94
Brosso,45.4927657,7.8033343,TO,35,94
Brozolo,45.1174194,8.0712784,TO,36,94
Bruino,45.0202313,7.4676911,TO,37,94
Brusasco,45.1559558,8.0600942,TO,38,94
Bruzolo,45.1431255,7.1939769,TO,39,94
Buriasco,44.873355,7.411923,TO,40,94
Burolo,45.4841252,7.9320566,TO,41,94
Busano,45.3288398,7.6557436,TO,42,94
Bussoleno,45.1372801,7.1493187,TO,43,94
Buttigliera Alta,45.0670146,7.4367807,TO,44,94
Cafasse,45.2447136,7.5181235,TO,45,94
Caluso,45.307865,7.8915053,TO,46,94
Cambiano,44.9734576,7.7793248,TO,47,94
Campiglione Fenile,44.8021199,7.3250382,TO,48,94
Candia Canavese,45.3281713,7.8866124,TO,49,94
Candiolo,44.9602633,7.6012111,TO,50,94
Canischio,45.3743498,7.5952182,TO,51,94
Cantalupa,44.9403073,7.3326039,TO,52,94
Cantoira,45.3432391,7.3816797,TO,53,94
Caprie,45.1178654,7.3325065,TO,54,94
Caravino,45.3986096,7.9602135,TO,55,94
Carema,45.5844545,7.8123043,TO,56,94
Carignano,44.9066637,7.6753431,TO,57,94
Carmagnola,44.8465448,7.7181575,TO,58,94
Casalborgone,45.129963,7.9404405,TO,59,94
Cascinette d'Ivrea,45.4784597,7.9046983,TO,60,94
Caselette,45.1058811,7.4832072,TO,61,94
Caselle Torinese,45.1771666,7.6481863,TO,62,94
Castagneto Po,45.1606091,7.8869884,TO,63,94
Castagnole Piemonte,44.8986165,7.5665563,TO,64,94
Castellamonte,45.3833395,7.7098652,TO,65,94
Castelnuovo Nigra,45.4373279,7.6951142,TO,66,94
Castiglione Torinese,45.1233094,7.8160937,TO,67,94
Cavagnolo,45.1520751,8.0513102,TO,68,94
Cavour,44.7840265,7.3752321,TO,69,94
Cercenasco,44.8612571,7.5012581,TO,70,94
Ceres,45.3130821,7.3893433,TO,71,94
Ceresole Reale,45.4326228,7.232541,TO,72,94
Cesana Torinese,44.9524088,6.7942278,TO,73,94
Chialamberto,45.3628633,7.3457007,TO,74,94
Chianocco,45.1485865,7.1693934,TO,75,94
Chiaverano,45.4994028,7.9031274,TO,76,94
Chieri,45.0131517,7.8210716,TO,77,94
Chiesanuova,45.4178128,7.6560592,TO,78,94
Chiomonte,45.1193861,6.9833861,TO,79,94
Chiusa di San Michele,45.1015471,7.3264449,TO,80,94
Chivasso,45.1885564,7.8871395,TO,81,94
Ciconio,45.3303253,7.7598721,TO,82,94
Cintano,45.428055,7.686621,TO,83,94
Cinzano,45.0938984,7.9211215,TO,84,94
Ciriè,45.2320252,7.6037821,TO,85,94
Claviere,44.9386158,6.7493064,TO,86,94
Coassolo Torinese,45.3007164,7.4613293,TO,87,94
Coazze,45.0514173,7.2946436,TO,88,94
Collegno,45.0774011,7.5691295,TO,89,94
Colleretto Castelnuovo,45.4214111,7.6789816,TO,90,94
Colleretto Giacosa,45.4328929,7.7999643,TO,91,94
Condove,45.1171436,7.3107299,TO,92,94
Corio,45.3127462,7.5325615,TO,93,94
Cossano Canavese,45.3883351,7.9933732,TO,94,94
Cuceglio,45.3589326,7.8148439,TO,95,94
Cumiana,44.9827939,7.3743768,TO,96,94
Cuorgnè,45.3912313,7.6489149,TO,97,94
Druento,45.1347332,7.5762042,TO,98,94
Exilles,45.0974909,6.9296242,TO,99,94
Favria,45.3328504,7.6880143,TO,100,94
Feletto,45.305494,7.7471079,TO,101,94
Fenestrelle,45.0342952,7.0518867,TO,102,94
Fiano,45.218123,7.5197835,TO,103,94
Fiorano Canavese,45.4675752,7.8289773,TO,104,94
Foglizzo,45.2720198,7.8231787,TO,105,94
Forno Canavese,45.3468407,7.5867804,TO,106,94
Frassinetto,45.4360373,7.6056789,TO,107,94
Front,45.2795532,7.6655965,TO,108,94
Frossasco,44.9336199,7.3507705,TO,109,94
Garzigliana,44.8367717,7.3747313,TO,110,94
Gassino Torinese,45.1274531,7.8248966,TO,111,94
Germagnano,45.2621833,7.4668644,TO,112,94
Giaglione,45.1396886,7.0141385,TO,113,94
Giaveno,45.0447522,7.3530865,TO,114,94
Givoletto,45.1587801,7.4967729,TO,115,94
Gravere,45.1239188,7.0210728,TO,116,94
Groscavallo,45.3689574,7.2822951,TO,117,94
Grosso,45.2563694,7.5566335,TO,118,94
Grugliasco,45.0621103,7.5778006,TO,119,94
Ingria,45.4662964,7.5708626,TO,120,94
Inverso Pinasca,44.9472274,7.215964,TO,121,94
Isolabella,44.9066417,7.9092678,TO,122,94
Issiglio,45.4468144,7.7541627,TO,123,94
Ivrea,45.4661941,7.8759668,TO,124,94
La Cassa,45.1818247,7.51913,TO,125,94
La Loggia,44.9566759,7.6677072,TO,126,94
Lanzo Torinese,45.2723224,7.4766155,TO,127,94
Lauriano,45.1584557,7.9916695,TO,128,94
Leini,45.1839381,7.7151076,TO,129,94
Lemie,45.2285585,7.2928817,TO,130,94
Lessolo,45.4761616,7.8142197,TO,131,94
Levone,45.3181072,7.6059006,TO,132,94
Locana,45.4169972,7.4612623,TO,133,94
Lombardore,45.2357094,7.7362669,TO,134,94
Lombriasco,44.8415984,7.6357788,TO,135,94
Loranzè,45.4422362,7.810871,TO,136,94
Luserna San Giovanni,44.8143175,7.2457908,TO,137,94
Lusernetta,44.8023618,7.250236,TO,138,94
Lusigliè,45.3185684,7.7664666,TO,139,94
Macello,44.8511751,7.4007927,TO,140,94
Maglione,45.3477069,8.0117445,TO,141,94
Marentino,45.0580041,7.8733297,TO,142,94
Massello,44.9585595,7.0563128,TO,143,94
Mathi,45.2566436,7.5413209,TO,144,94
Mattie,45.1187055,7.1121519,TO,145,94
Mazzè,45.298539,7.9370016,TO,146,94
Meana di Susa,45.1207336,7.0681407,TO,147,94
Mercenasco,45.3569822,7.8825668,TO,148,94
Mezzenile,45.2924068,7.3950199,TO,149,94
Mombello di Torino,45.0463992,7.9195483,TO,150,94
Mompantero,45.1399072,7.0579733,TO,151,94
Monastero di Lanzo,45.3014274,7.4391322,TO,152,94
Moncalieri,45.000924,7.6852479,TO,153,94
Moncenisio,45.2052902,6.9835609,TO,154,94
Montaldo Torinese,45.0663638,7.8508936,TO,155,94
Montalenghe,45.3377263,7.8398563,TO,156,94
Montalto Dora,45.4936297,7.8637946,TO,157,94
Montanaro,45.2328961,7.8528256,TO,158,94
Monteu da Po,45.1505427,8.0147845,TO,159,94
Moriondo Torinese,45.0390614,7.9440556,TO,160,94
Nichelino,44.9951889,7.6473727,TO,161,94
Noasca,45.453056,7.3135435,TO,162,94
Nole,45.2452388,7.5701212,TO,163,94
Nomaglio,45.5351887,7.8597152,TO,164,94
None,44.9323104,7.5412396,TO,165,94
Novalesa,45.1876373,7.0146657,TO,166,94
Oglianico,45.3425704,7.6927438,TO,167,94
Orbassano,45.0070316,7.5369568,TO,168,94
Orio Canavese,45.3284928,7.8602996,TO,169,94
Osasco,44.8494709,7.3431663,TO,170,94
Osasio,44.8694593,7.6075282,TO,171,94
Oulx,45.0312711,6.8322188,TO,172,94
Ozegna,45.3490184,7.7431342,TO,173,94
Palazzo Canavese,45.4574832,7.9780494,TO,174,94
Pancalieri,44.8304699,7.5881618,TO,175,94
Parella,45.42999,7.7910274,TO,176,94
Pavarolo,45.0689255,7.834758,TO,177,94
Pavone Canavese,45.435266,7.853976,TO,178,94
Pecetto Torinese,45.0195573,7.7486999,TO,179,94
Perosa Argentina,44.958097,7.1923703,TO,180,94
Perosa Canavese,45.3971612,7.8292559,TO,181,94
Perrero,44.9374546,7.1152671,TO,182,94
Pertusio,45.3534027,7.6387241,TO,183,94
Pessinetto,45.290546,7.4028471,TO,184,94
Pianezza,45.1006232,7.5463576,TO,185,94
Pinasca,44.9426596,7.2276729,TO,186,94
Pinerolo,44.8873317,7.3320011,TO,187,94
Pino Torinese,45.0435191,7.7721652,TO,188,94
Piobesi Torinese,44.9330545,7.6119311,TO,189,94
Piossasco,44.9906984,7.4627552,TO,190,94
Piscina,44.9194615,7.4258975,TO,191,94
Piverone,45.4475488,8.0071026,TO,192,94
Poirino,44.9211961,7.8436194,TO,193,94
Pomaretto,44.9550641,7.1822031,TO,194,94
Pont Canavese,45.4207331,7.5935708,TO,195,94
Porte,44.8875621,7.2679852,TO,196,94
Pragelato,45.0162744,6.9422934,TO,197,94
Prali,44.8904046,7.0490437,TO,198,94
Pralormo,44.8613542,7.9006632,TO,199,94
Pramollo,44.9045853,7.2116986,TO,200,94
Prarostino,44.8658369,7.2697215,TO,201,94
Prascorsano,45.3676604,7.6157085,TO,202,94
Pratiglione,45.3536517,7.5960906,TO,203,94
Quagliuzzo,45.4264997,7.7818365,TO,204,94
Quassolo,45.5249408,7.8324759,TO,205,94
Quincinetto,45.5608176,7.8057688,TO,206,94
Reano,45.0517062,7.429554,TO,207,94
Ribordone,45.4316138,7.502419,TO,208,94
Rivalba,45.1188065,7.8870447,TO,209,94
Rivalta di Torino,45.0345441,7.5232926,TO,210,94
Riva presso Chieri,44.9862792,7.8691993,TO,211,94
Rivara,45.3323186,7.6250614,TO,212,94
Rivarolo Canavese,45.3327982,7.7252212,TO,213,94
Rivarossa,45.2512811,7.7171996,TO,214,94
Rivoli,45.070628,7.5339449,TO,215,94
Robassomero,45.200084,7.5701592,TO,216,94
Rocca Canavese,45.3094102,7.578537,TO,217,94
Roletto,44.9252466,7.3306684,TO,218,94
Romano Canavese,45.3913474,7.8679044,TO,219,94
Ronco Canavese,45.4994349,7.5456723,TO,220,94
Rondissone,45.24679,7.9658163,TO,221,94
Rorà,44.7923004,7.1984925,TO,222,94
Roure,45.0010825,7.1290852,TO,223,94
Rosta,45.0714196,7.4639672,TO,224,94
Rubiana,45.1392048,7.3823984,TO,225,94
Rueglio,45.4678542,7.7558219,TO,226,94
Salassa,45.3595602,7.6893918,TO,227,94
Salbertrand,45.0723713,6.8836881,TO,228,94
Salerano Canavese,45.4564477,7.8499024,TO,229,94
Salza di Pinerolo,44.9405416,7.053245,TO,230,94
Samone,45.4492906,7.8456432,TO,231,94
San Benigno Canavese,45.2239633,7.7826551,TO,232,94
San Carlo Canavese,45.2481552,7.6101615,TO,233,94
San Colombano Belmonte,45.3814438,7.618451,TO,234,94
San Didero,45.1351631,7.215155,TO,235,94
San Francesco al Campo,45.2255394,7.6556646,TO,236,94
Sangano,45.0262347,7.4505386,TO,237,94
San Germano Chisone,44.8987128,7.2408566,TO,238,94
San Gillio,45.1420605,7.5338325,TO,239,94
San Giorgio Canavese,45.3354473,7.7942594,TO,240,94
San Giorio di Susa,45.1284155,7.1775315,TO,241,94
San Giusto Canavese,45.3122172,7.8083334,TO,242,94
San Martino Canavese,45.3945985,7.8183624,TO,243,94
San Maurizio Canavese,45.2191199,7.630753,TO,244,94
San Mauro Torinese,45.1030953,7.7663283,TO,245,94
San Pietro Val Lemina,44.9073254,7.3135553,TO,246,94
San Ponso,45.3508201,7.6675166,TO,247,94
San Raffaele Cimena,45.1472256,7.8486967,TO,248,94
San Sebastiano da Po,45.1664428,7.9534693,TO,249,94
San Secondo di Pinerolo,44.8665626,7.2986478,TO,250,94
Sant'Ambrogio di Torino,45.0996877,7.3593131,TO,251,94
Quarona,45.7598619,8.2654215,VC,366,102
Sant'Antonino di Susa,45.1070831,7.2735097,TO,252,94
Santena,44.9496848,7.7731601,TO,253,94
Sauze di Cesana,44.9404442,6.8604972,TO,254,94
Sauze d'Oulx,45.0280858,6.8582494,TO,255,94
Scalenghe,44.888306,7.4979654,TO,256,94
Scarmagno,45.3858304,7.8407105,TO,257,94
Sciolze,45.0950363,7.8776624,TO,258,94
Sestriere,44.9576468,6.8765512,TO,259,94
Settimo Rottaro,45.4049042,7.9922308,TO,260,94
Settimo Torinese,45.1369893,7.7712401,TO,261,94
Settimo Vittone,45.5481131,7.8317209,TO,262,94
Sparone,45.4133052,7.5442141,TO,263,94
Strambinello,45.4232477,7.768662,TO,264,94
Strambino,45.3845912,7.8806282,TO,265,94
Susa,45.1352513,7.0464196,TO,266,94
Tavagnasco,45.5432265,7.8226103,TO,267,94
Torino,45.073274,7.6806875,TO,268,94
Torrazza Piemonte,45.2152115,7.9749012,TO,269,94
Torre Canavese,45.3918288,7.7605391,TO,270,94
Torre Pellice,44.8207373,7.2239787,TO,271,94
Trana,45.0370941,7.4173032,TO,272,94
Traversella,45.5094155,7.7504099,TO,273,94
Traves,45.2705812,7.4297477,TO,274,94
Trofarello,44.9859626,7.7403033,TO,275,94
Usseaux,45.0484973,7.0268735,TO,276,94
Usseglio,45.2327269,7.2172202,TO,277,94
Vaie,45.1018931,7.2866307,TO,278,94
Val della Torre,45.1555656,7.4494114,TO,279,94
Valgioie,45.0760079,7.3396396,TO,280,94
Vallo Torinese,45.2235028,7.4992892,TO,281,94
Valperga,45.3702749,7.656787,TO,282,94
Valprato Soana,45.52238,7.5489663,TO,283,94
Varisella,45.2098424,7.4890253,TO,284,94
Vauda Canavese,45.2792452,7.6182078,TO,285,94
Venaus,45.1547026,7.0119477,TO,286,94
Venaria Reale,45.1325378,7.6314973,TO,287,94
Verolengo,45.1890505,7.9671578,TO,288,94
Verrua Savoia,45.1565508,8.0931476,TO,289,94
Vestignè,45.3867057,7.9538786,TO,290,94
Vialfrè,45.380843,7.8181718,TO,291,94
Vidracco,45.4304595,7.7590151,TO,292,94
Vigone,44.842352,7.4945243,TO,293,94
Villafranca Piemonte,44.7812774,7.5045086,TO,294,94
Villanova Canavese,45.2429376,7.5535404,TO,295,94
Villarbasse,45.0448707,7.468001,TO,296,94
Villar Dora,45.1178382,7.3838222,TO,297,94
Villareggia,45.3110147,7.9785,TO,298,94
Villar Focchiardo,45.1097152,7.2266896,TO,299,94
Villar Pellice,44.8085876,7.1582795,TO,300,94
Villar Perosa,44.9201904,7.249269,TO,301,94
Villastellone,44.9215522,7.7453533,TO,302,94
Vinovo,44.9487821,7.6342416,TO,303,94
Virle Piemonte,44.8659384,7.5688908,TO,304,94
Vische,45.3315726,7.9513803,TO,305,94
Vistrorio,45.441102,7.7694197,TO,306,94
Viù,45.2389441,7.3764679,TO,307,94
Volpiano,45.2019004,7.7755503,TO,308,94
Volvera,44.9550226,7.5123049,TO,309,94
Mappano,45.1509961,7.7037794,TO,310,94
Val di Chy,45.4620917,7.773137,TO,311,94
Valchiusa,45.5203531,7.7071195,TO,312,94
Alagna Valsesia,45.8533368,7.9381296,VC,313,102
Albano Vercellese,45.4251196,8.3805828,VC,314,102
Alice Castello,45.3665324,8.0746946,VC,315,102
Arborio,45.4960914,8.3889854,VC,316,102
Asigliano Vercellese,45.2611784,8.4061942,VC,317,102
Balmuccia,45.8183577,8.1382562,VC,318,102
Balocco,45.4555397,8.2810335,VC,319,102
Bianzè,45.3073811,8.1200641,VC,320,102
Boccioleto,45.8299973,8.1132908,VC,321,102
Borgo d'Ale,45.3499212,8.053727,VC,322,102
Borgosesia,45.7167385,8.2764104,VC,323,102
Borgo Vercelli,45.3571618,8.4663705,VC,324,102
Buronzo,45.4821244,8.2683343,VC,325,102
Campertogno,45.7986834,8.032167,VC,326,102
Carcoforo,45.9089017,8.0489014,VC,327,102
Caresana,45.2210857,8.5064856,VC,328,102
Caresanablot,45.3573559,8.3887727,VC,329,102
Carisio,45.4084654,8.198586,VC,330,102
Casanova Elvo,45.3995339,8.2933068,VC,331,102
San Giacomo Vercellese,45.4974175,8.3253451,VC,332,102
Cervatto,45.8830922,8.162354,VC,333,102
Cigliano,45.3095599,8.021489,VC,334,102
Civiasco,45.8066954,8.2927871,VC,335,102
Collobiano,45.3971293,8.3485358,VC,336,102
Costanzana,45.2361993,8.3700654,VC,337,102
Cravagliana,45.8473583,8.2011295,VC,338,102
Crescentino,45.1923283,8.1025827,VC,339,102
Crova,45.3300408,8.2119299,VC,340,102
Desana,45.2687361,8.3574505,VC,341,102
Fobello,45.8895691,8.1589187,VC,342,102
Fontanetto Po,45.1933967,8.1917165,VC,343,102
Formigliana,45.4287819,8.2929105,VC,344,102
Gattinara,45.617352,8.3712807,VC,345,102
Ghislarengo,45.5293231,8.384323,VC,346,102
Greggio,45.4518081,8.3824755,VC,347,102
Guardabosone,45.7009478,8.2503224,VC,348,102
Lamporo,45.2300833,8.0975502,VC,349,102
Lenta,45.5555702,8.384448,VC,350,102
Lignana,45.2852984,8.3460464,VC,351,102
Livorno Ferraris,45.2816618,8.0819976,VC,352,102
Lozzolo,45.6225953,8.3220794,VC,353,102
Mollia,45.8152932,8.0309665,VC,354,102
Moncrivello,45.3312332,7.9958611,VC,355,102
Motta de' Conti,45.1915035,8.520771,VC,356,102
Olcenengo,45.3635979,8.3113898,VC,357,102
Oldenico,45.4023576,8.3827208,VC,358,102
Palazzolo Vercellese,45.1845011,8.2328243,VC,359,102
Pertengo,45.2356219,8.417629,VC,360,102
Pezzana,45.2620659,8.4842019,VC,361,102
Pila,45.7702581,8.0808151,VC,362,102
Piode,45.7697758,8.0530867,VC,363,102
Postua,45.7141971,8.2314962,VC,364,102
Prarolo,45.2822302,8.4793438,VC,365,102
Quinto Vercellese,45.3804833,8.3621848,VC,367,102
Rassa,45.7686363,8.0141933,VC,368,102
Rimella,45.9079532,8.1825922,VC,369,102
Rive,45.2125683,8.4183193,VC,370,102
Roasio,45.6086313,8.2889284,VC,371,102
Ronsecco,45.2535053,8.2777719,VC,372,102
Rossa,45.8335577,8.1256449,VC,373,102
Rovasenda,45.5367966,8.3136149,VC,374,102
Salasco,45.3252919,8.2637808,VC,375,102
Sali Vercellese,45.3093341,8.3296825,VC,376,102
Saluggia,45.2358358,8.0111381,VC,377,102
San Germano Vercellese,45.3501865,8.2509496,VC,378,102
Santhià,45.3669258,8.1743501,VC,379,102
Scopa,45.7917234,8.1131603,VC,380,102
Scopello,45.773683,8.0948415,VC,381,102
Serravalle Sesia,45.6861578,8.3114752,VC,382,102
Stroppiana,45.2313972,8.4534773,VC,383,102
Tricerro,45.2337999,8.3251494,VC,384,102
Trino,45.1942074,8.2969005,VC,385,102
Tronzano Vercellese,45.3427938,8.1746927,VC,386,102
Valduggia,45.7263977,8.3278565,VC,387,102
Varallo,45.8140503,8.2562118,VC,388,102
Vercelli,45.3239845,8.4232343,VC,389,102
Villarboit,45.436658,8.336869,VC,390,102
Villata,45.3856147,8.4326028,VC,391,102
Vocca,45.8309936,8.1875302,VC,392,102
Alto Sermenza,45.8766505,8.0290443,VC,393,102
Cellio con Breia,45.7607085,8.3117469,VC,394,102
Agrate Conturbia,45.6759896,8.5599266,NO,395,59
Ameno,45.7887932,8.4394275,NO,396,59
Armeno,45.8219765,8.4391789,NO,397,59
Arona,45.7604019,8.5594897,NO,398,59
Barengo,45.5747818,8.5120132,NO,399,59
Bellinzago Novarese,45.5703104,8.6397311,NO,400,59
Biandrate,45.4537873,8.4637055,NO,401,59
Boca,45.6782956,8.4087054,NO,402,59
Bogogno,45.6671743,8.5344991,NO,403,59
Bolzano Novarese,45.7628355,8.4441526,NO,404,59
Borgolavezzaro,45.3183864,8.6992676,NO,405,59
Borgomanero,45.698883,8.4629865,NO,406,59
Borgo Ticino,45.6880765,8.6039222,NO,407,59
Briga Novarese,45.7313926,8.4515914,NO,408,59
Briona,45.5422061,8.4798193,NO,409,59
Caltignaga,45.517092,8.5879148,NO,410,59
Cameri,45.5010303,8.6622435,NO,411,59
Carpignano Sesia,45.5353124,8.4183407,NO,412,59
Casalbeltrame,45.4362445,8.4683785,NO,413,59
Casaleggio Novara,45.4863093,8.4926659,NO,414,59
Casalino,45.357685,8.5227352,NO,415,59
Casalvolone,45.3994628,8.4643646,NO,416,59
Castellazzo Novarese,45.5139988,8.4887075,NO,417,59
Castelletto sopra Ticino,45.7140591,8.6423732,NO,418,59
Cavaglietto,45.6028078,8.5009121,NO,419,59
Cavaglio d'Agogna,45.6118196,8.482786,NO,420,59
Cavallirio,45.664969,8.3967364,NO,421,59
Cerano,45.4106786,8.7808551,NO,422,59
Colazza,45.7926355,8.4990851,NO,423,59
Comignago,45.7152483,8.5651231,NO,424,59
Cressa,45.648002,8.5074836,NO,425,59
Cureggio,45.6751385,8.4613609,NO,426,59
Divignano,45.6622872,8.6014953,NO,427,59
Dormelletto,45.7301706,8.5731841,NO,428,59
Fara Novarese,45.5551244,8.4591121,NO,429,59
Fontaneto d'Agogna,45.639867,8.4845827,NO,430,59
Galliate,45.4777007,8.6952726,NO,431,59
Garbagna Novarese,45.3866548,8.6596796,NO,432,59
Gargallo,45.7275134,8.4292154,NO,433,59
Ghemme,45.5978178,8.420091,NO,434,59
Gozzano,45.7475661,8.4346508,NO,435,59
Granozzo con Monticello,45.3601442,8.5741367,NO,436,59
Grignasco,45.6819106,8.3397089,NO,437,59
Invorio,45.7559157,8.4867397,NO,438,59
Landiona,45.4969127,8.4221687,NO,439,59
Lesa,45.8301213,8.5648443,NO,440,59
Maggiora,45.6907627,8.4209948,NO,441,59
Mandello Vitta,45.495238,8.4591859,NO,442,59
Marano Ticino,45.6298317,8.6319364,NO,443,59
Massino Visconti,45.8219143,8.5388081,NO,444,59
Meina,45.7900448,8.5376017,NO,445,59
Mezzomerico,45.6202916,8.60462,NO,446,59
Miasino,45.8021998,8.430361,NO,447,59
Momo,45.573919,8.5553705,NO,448,59
Nebbiuno,45.8060862,8.5242387,NO,449,59
Nibbiola,45.3717892,8.6563525,NO,450,59
Novara,45.44589,8.6219159,NO,451,59
Oleggio,45.596695,8.6373638,NO,452,59
Oleggio Castello,45.7493254,8.5297117,NO,453,59
Orta San Giulio,45.7991727,8.4056846,NO,454,59
Paruzzaro,45.7486966,8.5134575,NO,455,59
Pella,45.7970808,8.3831169,NO,456,59
Pettenasco,45.8173318,8.4085751,NO,457,59
Pisano,45.7935586,8.5104372,NO,458,59
Pogno,45.7566818,8.3830747,NO,459,59
Pombia,45.6492746,8.6323887,NO,460,59
Prato Sesia,45.6478829,8.3737739,NO,461,59
Recetto,45.4608115,8.4360882,NO,462,59
Romagnano Sesia,45.6333577,8.3828761,NO,463,59
Romentino,45.4626094,8.7208535,NO,464,59
San Maurizio d'Opaglio,45.7724817,8.390958,NO,465,59
San Nazzaro Sesia,45.4381361,8.4235666,NO,466,59
San Pietro Mosezzo,45.4556152,8.5434721,NO,467,59
Sillavengo,45.5204608,8.4405271,NO,468,59
Sizzano,45.5773532,8.4373333,NO,469,59
Soriso,45.7422787,8.4093648,NO,470,59
Sozzago,45.397822,8.7209774,NO,471,59
Suno,45.6311527,8.5409244,NO,472,59
Terdobbiate,45.3763568,8.695097,NO,473,59
Tornaco,45.3573679,8.7179066,NO,474,59
Trecate,45.4319091,8.7350555,NO,475,59
Vaprio d'Agogna,45.6035421,8.5540506,NO,476,59
Varallo Pombia,45.6667102,8.6330527,NO,477,59
Vespolate,45.3494764,8.6690381,NO,478,59
Vicolungo,45.4788349,8.4613171,NO,479,59
Vinzaglio,45.3236585,8.5184053,NO,480,59
Gattico-Veruno,45.705204,8.5268386,NO,481,59
Acceglio,44.4757985,6.9912226,CN,482,25
Aisone,44.3134369,7.2208339,CN,483,25
Alba,44.700916,8.035699,CN,484,25
Albaretto della Torre,44.5959075,8.0640823,CN,485,25
Alto,44.1082689,8.0036858,CN,486,25
Argentera,44.3795782,6.9693782,CN,487,25
Arguello,44.5829193,8.1106798,CN,488,25
Bagnasco,44.3020597,8.0425832,CN,489,25
Bagnolo Piemonte,44.7598976,7.3154823,CN,490,25
Baldissero d'Alba,44.7587078,7.9157493,CN,491,25
Barbaresco,44.7255426,8.0804646,CN,492,25
Barge,44.7252145,7.3233938,CN,493,25
Barolo,44.6098752,7.9418082,CN,494,25
Bastia Mondovì,44.4413762,7.8933219,CN,495,25
Battifollo,44.3191594,8.0094814,CN,496,25
Beinette,44.3656571,7.6457067,CN,497,25
Bellino,44.5805979,7.0171607,CN,498,25
Belvedere Langhe,44.4945561,7.9741677,CN,499,25
Bene Vagienna,44.5452312,7.8328253,CN,500,25
Benevello,44.6281819,8.1059188,CN,501,25
Bergolo,44.5480034,8.183526,CN,502,25
Bernezzo,44.3885948,7.4353103,CN,503,25
Bonvicino,44.5036111,8.0159202,CN,504,25
Borgomale,44.6204344,8.1327556,CN,505,25
Borgo San Dalmazzo,44.3287485,7.4874639,CN,506,25
Bosia,44.6024594,8.1462032,CN,507,25
Bossolasco,44.5267822,8.0575028,CN,508,25
Boves,44.3298085,7.5519949,CN,509,25
Bra,44.6981762,7.8547477,CN,510,25
Briaglia,44.395107,7.8769895,CN,511,25
Briga Alta,44.0832046,7.7507606,CN,512,25
Brondello,44.6000492,7.4051372,CN,513,25
Brossasco,44.570289,7.3604423,CN,514,25
Busca,44.5136882,7.4735215,CN,515,25
Camerana,44.4226542,8.1407987,CN,516,25
Canale,44.7972027,7.9914096,CN,517,25
Canosio,44.4553172,7.0813913,CN,518,25
Caprauna,44.1158086,7.9549407,CN,519,25
Caraglio,44.417706,7.427621,CN,520,25
Caramagna Piemonte,44.7804298,7.7411759,CN,521,25
Cardè,44.7441733,7.478216,CN,522,25
Carrù,44.4785823,7.8800643,CN,523,25
Cartignano,44.4770751,7.2876953,CN,524,25
Casalgrasso,44.8194982,7.6249607,CN,525,25
Castagnito,44.7564728,8.0301526,CN,526,25
Casteldelfino,44.5909638,7.0690319,CN,527,25
Castelletto Stura,44.4442194,7.6390511,CN,528,25
Castelletto Uzzone,44.4925707,8.1859833,CN,529,25
Castellinaldo d'Alba,44.7753259,8.0315351,CN,530,25
Castellino Tanaro,44.4277639,7.9818872,CN,531,25
Castelmagno,44.4091542,7.2123292,CN,532,25
Castelnuovo di Ceva,44.3532974,8.1301966,CN,533,25
Castiglione Falletto,44.6233304,7.9790348,CN,534,25
Castiglione Tinella,44.7260407,8.1894313,CN,535,25
Castino,44.6169882,8.1812139,CN,536,25
Cavallerleone,44.7394377,7.6627358,CN,537,25
Cavallermaggiore,44.7078515,7.687748,CN,538,25
Celle di Macra,44.4825618,7.1796736,CN,539,25
Centallo,44.5041151,7.5901488,CN,540,25
Ceresole Alba,44.7995197,7.8205661,CN,541,25
Cerretto Langhe,44.5743318,8.0978397,CN,542,25
Cervasca,44.3831496,7.4678883,CN,543,25
Cervere,44.6347449,7.7931675,CN,544,25
Ceva,44.3862246,8.0352173,CN,545,25
Cherasco,44.6522187,7.8582036,CN,546,25
Chiusa di Pesio,44.3247588,7.6778844,CN,547,25
Cigliè,44.4350586,7.9262261,CN,548,25
Cissone,44.5630956,8.0305096,CN,549,25
Clavesana,44.4821379,7.9119823,CN,550,25
Corneliano d'Alba,44.7355335,7.9612917,CN,551,25
Cortemilia,44.5808537,8.1918668,CN,552,25
Cossano Belbo,44.6690571,8.1985593,CN,553,25
Costigliole Saluzzo,44.5646044,7.4849377,CN,554,25
Cravanzana,44.5731475,8.1281897,CN,555,25
Crissolo,44.699097,7.1571897,CN,556,25
Cuneo,44.3932857,7.5511719,CN,557,25
Demonte,44.3152499,7.2975134,CN,558,25
Diano d'Alba,44.6513852,8.027669,CN,559,25
Dogliani,44.5300819,7.9451674,CN,560,25
Dronero,44.4669688,7.3633182,CN,561,25
Elva,44.5397567,7.0896342,CN,562,25
Entracque,44.2407441,7.3978031,CN,563,25
Envie,44.6817468,7.3721924,CN,564,25
Farigliano,44.5116901,7.917021,CN,565,25
Faule,44.8054219,7.5806638,CN,566,25
Feisoglio,44.5433513,8.104176,CN,567,25
Fossano,44.5493897,7.7248703,CN,568,25
Frabosa Soprana,44.2874616,7.8070923,CN,569,25
Frabosa Sottana,44.3020134,7.7983106,CN,570,25
Frassino,44.5713491,7.2756444,CN,571,25
Gaiola,44.3352361,7.4067619,CN,572,25
Gambasca,44.6293666,7.3474145,CN,573,25
Garessio,44.1972793,8.0298843,CN,574,25
Genola,44.5876841,7.6627261,CN,575,25
Gorzegno,44.5118511,8.1351176,CN,576,25
Gottasecca,44.4616859,8.1672527,CN,577,25
Govone,44.8048552,8.0999574,CN,578,25
Grinzane Cavour,44.6565312,7.9822138,CN,579,25
Guarene,44.7377989,8.0336748,CN,580,25
Igliano,44.443523,8.0125036,CN,581,25
Isasca,44.5872868,7.3815478,CN,582,25
Lagnasco,44.6246535,7.5553373,CN,583,25
La Morra,44.6373388,7.9334641,CN,584,25
Lequio Berria,44.6045975,8.0976718,CN,585,25
Lequio Tanaro,44.5602244,7.883599,CN,586,25
Lesegno,44.4012231,7.9665059,CN,587,25
Levice,44.5376509,8.1566196,CN,588,25
Limone Piemonte,44.2012791,7.5760798,CN,589,25
Lisio,44.3066855,7.9796342,CN,590,25
Macra,44.4998498,7.179204,CN,591,25
Magliano Alfieri,44.7664631,8.0678111,CN,592,25
Magliano Alpi,44.4580908,7.7995525,CN,593,25
Mango,44.6846084,8.1503312,CN,594,25
Manta,44.6143247,7.4862618,CN,595,25
Marene,44.66149,7.7291517,CN,596,25
Margarita,44.4026359,7.6868579,CN,597,25
Marmora,44.4574854,7.0944986,CN,598,25
Marsaglia,44.4521745,7.9829862,CN,599,25
Martiniana Po,44.6264098,7.3663153,CN,600,25
Melle,44.5620471,7.3205827,CN,601,25
Moiola,44.319679,7.3888721,CN,602,25
Mombarcaro,44.4677534,8.0850933,CN,603,25
Mombasiglio,44.363302,7.9699964,CN,604,25
Monastero di Vasco,44.3401652,7.8227613,CN,605,25
Monasterolo Casotto,44.3308236,7.9411393,CN,606,25
Monasterolo di Savigliano,44.6863291,7.6207698,CN,607,25
Monchiero,44.5730385,7.9181403,CN,608,25
Mondovì,44.3871664,7.819806,CN,609,25
Monesiglio,44.4648859,8.1163797,CN,610,25
Monforte d'Alba,44.5823276,7.9684088,CN,611,25
Montà,44.8130871,7.9600148,CN,612,25
Montaldo di Mondovì,44.3194575,7.8658404,CN,613,25
Montaldo Roero,44.7685622,7.9244658,CN,614,25
Montanera,44.4619684,7.6655736,CN,615,25
Montelupo Albese,44.623061,8.0463848,CN,616,25
Montemale di Cuneo,44.4376846,7.3728143,CN,617,25
Monterosso Grana,44.4088779,7.3239196,CN,618,25
Monteu Roero,44.7802313,7.9308693,CN,619,25
Montezemolo,44.3782287,8.141467,CN,620,25
Monticello d'Alba,44.7182847,7.9410088,CN,621,25
Moretta,44.7639001,7.5369242,CN,622,25
Morozzo,44.4230301,7.7104467,CN,623,25
Murazzano,44.473745,8.0188472,CN,624,25
Murello,44.7529544,7.6009425,CN,625,25
Narzole,44.5941489,7.8705198,CN,626,25
Neive,44.72631,8.1154993,CN,627,25
Neviglie,44.6921174,8.1159765,CN,628,25
Niella Belbo,44.5132813,8.0791207,CN,629,25
Niella Tanaro,44.4148162,7.9213586,CN,630,25
Novello,44.5871493,7.9276554,CN,631,25
Nucetto,44.3393901,8.0589157,CN,632,25
Oncino,44.6764915,7.1902546,CN,633,25
Ormea,44.1485801,7.9106908,CN,634,25
Ostana,44.6922117,7.1884822,CN,635,25
Paesana,44.6854403,7.276558,CN,636,25
Pagno,44.6137374,7.429936,CN,637,25
Pamparato,44.2771135,7.9138511,CN,638,25
Paroldo,44.4316646,8.0713186,CN,639,25
Perletto,44.5989889,8.2140793,CN,640,25
Perlo,44.3330791,8.0836067,CN,641,25
Peveragno,44.3300008,7.6171395,CN,642,25
Pezzolo Valle Uzzone,44.539268,8.1941101,CN,643,25
Pianfei,44.3704795,7.7097584,CN,644,25
Piasco,44.5685502,7.4574076,CN,645,25
Pietraporzio,44.3440005,7.0319433,CN,646,25
Piobesi d'Alba,44.7349039,7.9785127,CN,647,25
Piozzo,44.5157538,7.8924222,CN,648,25
Pocapaglia,44.7194539,7.8871859,CN,649,25
Polonghera,44.8033469,7.5960731,CN,650,25
Pontechianale,44.6219829,7.0283117,CN,651,25
Pradleves,44.4185879,7.2820866,CN,652,25
Prazzo,44.4830668,7.0554308,CN,653,25
Priero,44.3766067,8.0924196,CN,654,25
Priocca,44.7913025,8.0627276,CN,655,25
Priola,44.2459639,8.022424,CN,656,25
Prunetto,44.4894399,8.1443118,CN,657,25
Racconigi,44.7678184,7.6759818,CN,658,25
Revello,44.6546551,7.3890061,CN,659,25
Rifreddo,44.6504913,7.349098,CN,660,25
Rittana,44.3505597,7.4006354,CN,661,25
Roaschia,44.2701202,7.4561403,CN,662,25
Roascio,44.4171546,8.0225466,CN,663,25
Robilante,44.2942177,7.511163,CN,664,25
Roburent,44.3049837,7.8902071,CN,665,25
Roccabruna,44.4762859,7.3407474,CN,666,25
Rocca Cigliè,44.4440815,7.9511452,CN,667,25
Rocca de' Baldi,44.4301673,7.7456979,CN,668,25
Roccaforte Mondovì,44.3184143,7.745879,CN,669,25
Roccasparvera,44.3416448,7.441342,CN,670,25
Roccavione,44.3143982,7.4812565,CN,671,25
Rocchetta Belbo,44.6371262,8.1752719,CN,672,25
Roddi,44.6784469,7.9761077,CN,673,25
Roddino,44.5741003,8.0187358,CN,674,25
Rodello,44.6306059,8.0593158,CN,675,25
Rossana,44.5424915,7.4326069,CN,676,25
Ruffia,44.7072423,7.6024441,CN,677,25
Sale delle Langhe,44.397054,8.0834556,CN,678,25
Sale San Giovanni,44.3993697,8.0786067,CN,679,25
Saliceto,44.4132682,8.1667914,CN,680,25
Salmour,44.5781464,7.7921231,CN,681,25
Saluzzo,44.6470162,7.4908476,CN,682,25
Sambuco,44.3373312,7.0778104,CN,683,25
Sampeyre,44.5793754,7.1888737,CN,684,25
San Benedetto Belbo,44.4898837,8.0578511,CN,685,25
San Damiano Macra,44.4884055,7.2563092,CN,686,25
Sanfrè,44.7521861,7.8035497,CN,687,25
Sanfront,44.6458313,7.3202481,CN,688,25
San Michele Mondovì,44.3765173,7.9082487,CN,689,25
Sant'Albano Stura,44.5099189,7.7210531,CN,690,25
Santa Vittoria d'Alba,44.6965249,7.9331557,CN,691,25
Santo Stefano Belbo,44.7074852,8.2310162,CN,692,25
Santo Stefano Roero,44.7888149,7.9399096,CN,693,25
Savigliano,44.6480119,7.6574792,CN,694,25
Scagnello,44.3322954,7.9867937,CN,695,25
Scarnafigi,44.6817494,7.5669268,CN,696,25
Serralunga d'Alba,44.6092145,8.0006134,CN,697,25
Serravalle Langhe,44.56091,8.057662,CN,698,25
Sinio,44.5994756,8.021561,CN,699,25
Somano,44.5358849,8.0114022,CN,700,25
Sommariva del Bosco,44.7712808,7.7842659,CN,701,25
Sommariva Perno,44.7431871,7.9055758,CN,702,25
Stroppo,44.5056334,7.1259127,CN,703,25
Tarantasca,44.4934071,7.5450606,CN,704,25
Torre Bormida,44.5630946,8.1556107,CN,705,25
Torre Mondovì,44.3520291,7.9003514,CN,706,25
Torre San Giorgio,44.7358156,7.5299411,CN,707,25
Torresina,44.4321989,8.0347641,CN,708,25
Treiso,44.6893676,8.0868493,CN,709,25
Trezzo Tinella,44.6769474,8.1075834,CN,710,25
Trinità,44.5074601,7.7580358,CN,711,25
Valdieri,44.2776299,7.396136,CN,712,25
Valgrana,44.4095986,7.3806149,CN,713,25
Valloriate,44.3381374,7.3745655,CN,714,25
Venasca,44.5625348,7.394952,CN,715,25
Verduno,44.6681141,7.933767,CN,716,25
Vernante,44.2455519,7.5337036,CN,717,25
Verzuolo,44.5995468,7.4831278,CN,718,25
Vezza d'Alba,44.763895,7.996091,CN,719,25
Vicoforte,44.3749448,7.8649884,CN,720,25
Vignolo,44.3595471,7.4698938,CN,721,25
Villafalletto,44.5442728,7.5388949,CN,722,25
Villanova Mondovì,44.3444484,7.7620933,CN,723,25
Villanova Solaro,44.7296321,7.5760324,CN,724,25
Villar San Costanzo,44.4829972,7.3802981,CN,725,25
Vinadio,44.307079,7.174339,CN,726,25
Viola,44.2904658,7.9662355,CN,727,25
Vottignasco,44.564807,7.5782137,CN,728,25
Agliano Terme,44.7907,8.2511025,AT,729,8
Albugnano,45.0780173,7.9715283,AT,730,8
Antignano,44.8454381,8.1337873,AT,731,8
Aramengo,45.0997329,8.0019807,AT,732,8
Asti,44.899126,8.2041426,AT,733,8
Azzano d'Asti,44.8746943,8.267659,AT,734,8
Baldichieri d'Asti,44.906994,8.0911038,AT,735,8
Belveglio,44.8304829,8.3301043,AT,736,8
Berzano di San Pietro,45.0949077,7.9540495,AT,737,8
Bruno,44.790628,8.4402729,AT,738,8
Bubbio,44.6638362,8.293609,AT,739,8
Buttigliera d'Asti,45.0225449,7.9505128,AT,740,8
Calamandrana,44.7365437,8.3356275,AT,741,8
Calliano Monferrato,45.0062598,8.2573264,AT,742,8
Calosso,44.7394711,8.2271856,AT,743,8
Camerano Casasco,44.9886577,8.0908805,AT,744,8
Canelli,44.7198729,8.2882031,AT,745,8
Cantarana,44.9003807,8.0307246,AT,746,8
Capriglio,45.0042278,8.0081642,AT,747,8
Casorzo Monferrato,45.022816,8.3341398,AT,748,8
Cassinasco,44.6886322,8.301661,AT,749,8
Castagnole delle Lanze,44.7549126,8.1491783,AT,750,8
Castagnole Monferrato,44.9614416,8.306092,AT,751,8
Castel Boglione,44.7206138,8.3811957,AT,752,8
Castell'Alfero,44.9827081,8.2094452,AT,753,8
Castellero,44.9240028,8.0747486,AT,754,8
Castelletto Molina,44.750303,8.4328345,AT,755,8
Castello di Annone,44.8787617,8.3136895,AT,756,8
Castelnuovo Belbo,44.8018094,8.4122613,AT,757,8
Castelnuovo Calcea,44.7882102,8.2856362,AT,758,8
Castelnuovo Don Bosco,45.0413409,7.9636245,AT,759,8
Castel Rocchero,44.7187915,8.4159658,AT,760,8
Cellarengo,44.865993,7.9450011,AT,761,8
Celle Enomondo,44.8566295,8.1229731,AT,762,8
Cerreto d'Asti,45.0497678,8.0367647,AT,763,8
Cerro Tanaro,44.8726668,8.3602087,AT,764,8
Cessole,44.6479857,8.2432015,AT,765,8
Chiusano d'Asti,44.9850527,8.1178076,AT,766,8
Cinaglio,44.9748418,8.1001665,AT,767,8
Cisterna d'Asti,44.8261717,8.004821,AT,768,8
Coazzolo,44.7282092,8.1451412,AT,769,8
Cocconato,45.0871815,8.0392394,AT,770,8
Corsione,45.0007454,8.1451364,AT,771,8
Cortandone,44.9596886,8.0575712,AT,772,8
Cortanze,45.0152236,8.0895934,AT,773,8
Cortazzone,44.9795332,8.0619238,AT,774,8
Cortiglione,44.8230145,8.3585651,AT,775,8
Cossombrato,44.9941207,8.1375273,AT,776,8
Costigliole d'Asti,44.7882167,8.180628,AT,777,8
Cunico,45.0404348,8.0972115,AT,778,8
Dusino San Michele,44.9201841,7.9722814,AT,779,8
Ferrere,44.8734007,7.9938552,AT,780,8
Fontanile,44.7533737,8.4221857,AT,781,8
Frinco,45.0055853,8.1753657,AT,782,8
Grana Monferrato,44.9980498,8.2991228,AT,783,8
Grazzano Badoglio,45.0389144,8.313557,AT,784,8
Incisa Scapaccino,44.8083938,8.3809458,AT,785,8
Isola d'Asti,44.8294713,8.1772147,AT,786,8
Loazzolo,44.6689613,8.2585255,AT,787,8
Maranzana,44.7597653,8.4768203,AT,788,8
Maretto,44.9443539,8.0342359,AT,789,8
Moasca,44.762545,8.2779396,AT,790,8
Mombaldone,44.5692293,8.3292041,AT,791,8
Mombaruzzo,44.7710213,8.4486667,AT,792,8
Mombercelli,44.8169714,8.2944274,AT,793,8
Monale,44.9360941,8.0716409,AT,794,8
Monastero Bormida,44.6475161,8.3246203,AT,795,8
Moncalvo,45.0513987,8.2634659,AT,796,8
Moncucco Torinese,45.0678824,7.9321561,AT,797,8
Mongardino,44.8488395,8.2186989,AT,798,8
Montabone,44.6985955,8.3903099,AT,799,8
Montafia,44.9891936,8.0251525,AT,800,8
Montaldo Scarampi,44.8285962,8.2573903,AT,801,8
Montechiaro d'Asti,45.0082137,8.1123822,AT,802,8
Montegrosso d'Asti,44.8224078,8.2387429,AT,803,8
Montemagno Monferrato,44.9840328,8.3240069,AT,804,8
Nizza Monferrato,44.773614,8.3565029,AT,805,8
Olmo Gentile,44.5855501,8.247035,AT,806,8
Passerano Marmorito,45.0563933,8.0187926,AT,807,8
Penango,45.0332578,8.2501324,AT,808,8
Piea,45.0252897,8.0720897,AT,809,8
Pino d'Asti,45.0581925,7.986255,AT,810,8
Piovà Massaia,45.0544849,8.0509446,AT,811,8
Portacomaro,44.9571107,8.2585123,AT,812,8
Quaranti,44.7510416,8.4490793,AT,813,8
Refrancore,44.9375746,8.3427129,AT,814,8
Revigliasco d'Asti,44.8587289,8.1583649,AT,815,8
Roatto,44.9514989,8.0266129,AT,816,8
Robella,45.1023322,8.100056,AT,817,8
Rocca d'Arazzo,44.8738739,8.2858155,AT,818,8
Roccaverano,44.5929831,8.2719314,AT,819,8
Rocchetta Palafea,44.7069446,8.345724,AT,820,8
Rocchetta Tanaro,44.8588644,8.3443271,AT,821,8
San Damiano d'Asti,44.8346357,8.065231,AT,822,8
San Giorgio Scarampi,44.6113127,8.2420238,AT,823,8
San Martino Alfieri,44.8185157,8.109371,AT,824,8
San Marzano Oliveto,44.7532191,8.2961627,AT,825,8
San Paolo Solbrito,44.952267,7.9727807,AT,826,8
Scurzolengo,44.9657062,8.2782601,AT,827,8
Serole,44.5537462,8.2597238,AT,828,8
Sessame,44.6689341,8.3378293,AT,829,8
Settime,44.9640872,8.112892,AT,830,8
Soglio,44.9974294,8.0781248,AT,831,8
Tigliole,44.8872714,8.0754687,AT,832,8
Tonco,45.0241068,8.189842,AT,833,8
Vaglio Serra,44.796531,8.3389334,AT,834,8
Valfenera,44.8968709,7.9650986,AT,835,8
Vesime,44.6371886,8.2282253,AT,836,8
Viale,44.9992683,8.0522905,AT,837,8
Viarigi,44.980449,8.3586906,AT,838,8
Vigliano d'Asti,44.835101,8.2318906,AT,839,8
Villafranca d'Asti,44.9136684,8.0322123,AT,840,8
Villanova d'Asti,44.9418872,7.9372218,AT,841,8
Villa San Secondo,45.0051825,8.1352553,AT,842,8
Vinchio,44.8074021,8.3173016,AT,843,8
Montiglio Monferrato,45.0674124,8.0977382,AT,844,8
Moransengo-Tonengo,45.1183415,8.0164389,AT,845,8
Acqui Terme,44.6766013,8.4697522,AL,846,2
Albera Ligure,44.7009104,9.0684268,AL,847,2
Alessandria,44.9129705,8.6154012,AL,848,2
Alfiano Natta,45.0472315,8.2084598,AL,849,2
Alice Bel Colle,44.7257823,8.4512007,AL,850,2
Altavilla Monferrato,44.9928977,8.3757125,AL,851,2
Alzano Scrivia,45.0175545,8.881287,AL,852,2
Arquata Scrivia,44.6867333,8.8857447,AL,853,2
Avolasca,44.8029645,8.9652382,AL,854,2
Balzola,45.1831971,8.402547,AL,855,2
Basaluzzo,44.768289,8.7059341,AL,856,2
Bassignana,45.0032111,8.7359431,AL,857,2
Belforte Monferrato,44.6243621,8.6616036,AL,858,2
Bergamasco,44.8271011,8.4552104,AL,859,2
Berzano di Tortona,44.8764534,8.9505959,AL,860,2
Bistagno,44.6617871,8.3685867,AL,861,2
Borghetto di Borbera,44.7310474,8.9453502,AL,862,2
Borgoratto Alessandrino,44.8364862,8.5394206,AL,863,2
Borgo San Martino,45.0890899,8.5236214,AL,864,2
Bosco Marengo,44.8220868,8.675991,AL,865,2
Bosio,44.6477824,8.7919125,AL,866,2
Bozzole,45.0678753,8.6048772,AL,867,2
Brignano-Frascata,44.8119469,9.040796,AL,868,2
Cabella Ligure,44.6730762,9.0962927,AL,869,2
Camagna Monferrato,45.0178457,8.4303369,AL,870,2
Camino,45.1622096,8.2870447,AL,871,2
Cantalupo Ligure,44.7189679,9.0443591,AL,872,2
Capriata d'Orba,44.7299603,8.6889378,AL,873,2
Carbonara Scrivia,44.8497637,8.8707753,AL,874,2
Carentino,44.8288725,8.4704697,AL,875,2
Carezzano,44.8067495,8.9000082,AL,876,2
Carpeneto,44.677249,8.6063158,AL,877,2
Carrega Ligure,44.6190667,9.1756124,AL,878,2
Carrosio,44.6593983,8.8323311,AL,879,2
Cartosio,44.5911938,8.4185292,AL,880,2
Casal Cermelli,44.8357007,8.6224245,AL,881,2
Casaleggio Boiro,44.6342933,8.7316846,AL,882,2
Casale Monferrato,45.135028,8.452606,AL,883,2
Casalnoceto,44.9131601,8.9819855,AL,884,2
Casasco,44.8282217,9.0060511,AL,885,2
Cassine,44.74821,8.525483,AL,886,2
Cassinelle,44.6068391,8.5604746,AL,887,2
Castellania Coppi,44.7988419,8.9304523,AL,888,2
Castellar Guidobono,44.9062642,8.9467351,AL,889,2
Castellazzo Bormida,44.8454696,8.5771165,AL,890,2
Castelletto d'Erro,44.6250784,8.394411,AL,891,2
Castelletto d'Orba,44.685562,8.7022553,AL,892,2
Castelletto Merli,45.0752003,8.2405562,AL,893,2
Castelletto Monferrato,44.9798675,8.5662417,AL,894,2
Castelnuovo Bormida,44.7436825,8.5462034,AL,895,2
Castelnuovo Scrivia,44.9794221,8.8816324,AL,896,2
Castelspina,44.8044664,8.5824154,AL,897,2
Cavatore,44.6309548,8.452413,AL,898,2
Cella Monte,45.0748007,8.3906872,AL,899,2
Cereseto,45.0860104,8.3169408,AL,900,2
Cerreto Grue,44.8418594,8.9319766,AL,901,2
Cerrina Monferrato,45.120192,8.2152477,AL,902,2
Coniolo,45.1469086,8.3720472,AL,903,2
Conzano,45.0205408,8.4560585,AL,904,2
Costa Vescovato,44.8182014,8.9290162,AL,905,2
Cremolino,44.6374906,8.5858399,AL,906,2
Denice,44.5986572,8.3340115,AL,907,2
Dernice,44.7675981,9.0500793,AL,908,2
Fabbrica Curone,44.7548201,9.1541822,AL,909,2
Felizzano,44.8980397,8.4358029,AL,910,2
Fraconalto,44.5921496,8.8779599,AL,911,2
Francavilla Bisio,44.7358845,8.731659,AL,912,2
Frascaro,44.8271093,8.5326506,AL,913,2
Frassinello Monferrato,45.0315078,8.3866096,AL,914,2
Frassineto Po,45.1340187,8.5361033,AL,915,2
Fresonara,44.7827316,8.6848407,AL,916,2
Frugarolo,44.8389822,8.6790623,AL,917,2
Fubine Monferrato,44.9655624,8.4254127,AL,918,2
Gabiano,45.1589402,8.1931504,AL,919,2
Gamalero,44.8089199,8.5430521,AL,920,2
Garbagna,44.7809357,8.9990357,AL,921,2
Gavi,44.6882933,8.8036063,AL,922,2
Giarole,45.060654,8.567857,AL,923,2
Gremiasco,44.7970425,9.1047386,AL,924,2
Grognardo,44.6299278,8.4915067,AL,925,2
Grondona,44.6971918,8.9625408,AL,926,2
Guazzora,45.0135967,8.8449106,AL,927,2
Isola Sant'Antonio,45.0308725,8.8504086,AL,928,2
Lerma,44.6349675,8.7125166,AL,929,2
Malvicino,44.5596507,8.4140666,AL,930,2
Masio,44.8693908,8.408011,AL,931,2
Melazzo,44.6439852,8.4269029,AL,932,2
Merana,44.517788,8.2975246,AL,933,2
Mirabello Monferrato,45.0357457,8.5234501,AL,934,2
Molare,44.6206141,8.6010831,AL,935,2
Molino dei Torti,45.0235405,8.8920305,AL,936,2
Mombello Monferrato,45.1330294,8.2508837,AL,937,2
Momperone,44.8386375,9.0344792,AL,938,2
Moncestino,45.154852,8.1584003,AL,939,2
Mongiardino Ligure,44.6385514,9.0612632,AL,940,2
Monleale,44.8850715,8.9843698,AL,941,2
Montacuto,44.7667481,9.1068749,AL,942,2
Montaldeo,44.6665306,8.7306833,AL,943,2
Montaldo Bormida,44.6834491,8.5890058,AL,944,2
Montecastello,44.9489477,8.6866065,AL,945,2
Montechiaro d'Acqui,44.5949771,8.3796734,AL,946,2
Montegioco,44.8377939,8.9540834,AL,947,2
Montemarzino,44.8484822,8.9931314,AL,948,2
Morano sul Po,45.1640395,8.3656208,AL,949,2
Morbello,44.6034699,8.5100103,AL,950,2
Mornese,44.6390754,8.7561914,AL,951,2
Morsasco,44.6645589,8.549096,AL,952,2
Murisengo,45.0834471,8.137466,AL,953,2
Novi Ligure,44.7601792,8.787099,AL,954,2
Occimiano,45.0601772,8.5066555,AL,955,2
Odalengo Grande,45.1095224,8.1667216,AL,956,2
Odalengo Piccolo,45.0719277,8.2095151,AL,957,2
Olivola,45.0376938,8.3669623,AL,958,2
Orsara Bormida,44.6900822,8.5624365,AL,959,2
Ottiglio,45.0518339,8.3391467,AL,960,2
Ovada,44.6374608,8.646387,AL,961,2
Oviglio,44.8598003,8.4867247,AL,962,2
Ozzano Monferrato,45.1018934,8.3762262,AL,963,2
Paderna,44.8207217,8.8900021,AL,964,2
Pareto,44.5157343,8.3828668,AL,965,2
Parodi Ligure,44.6708171,8.758618,AL,966,2
Pasturana,44.7506725,8.7490384,AL,967,2
Pecetto di Valenza,44.9897155,8.6704681,AL,968,2
Pietra Marazzi,44.9441397,8.6705542,AL,969,2
Pomaro Monferrato,45.0639175,8.5951919,AL,970,2
Pontecurone,44.9588391,8.9359378,AL,971,2
Pontestura,45.1436421,8.3325409,AL,972,2
Ponti,44.6274099,8.3652335,AL,973,2
Ponzano Monferrato,45.0844601,8.2662183,AL,974,2
Ponzone,44.5863981,8.4596074,AL,975,2
Pozzol Groppo,44.877456,9.0293141,AL,976,2
Pozzolo Formigaro,44.793865,8.7815464,AL,977,2
Prasco,44.6424071,8.5528503,AL,978,2
Predosa,44.7527244,8.6592398,AL,979,2
Quargnento,44.9448388,8.4877076,AL,980,2
Quattordio,44.8992043,8.4059871,AL,981,2
Ricaldone,44.7320841,8.4696335,AL,982,2
Rivalta Bormida,44.7113696,8.5502585,AL,983,2
Rivarone,44.9776577,8.7156949,AL,984,2
Roccaforte Ligure,44.6777056,9.0277694,AL,985,2
Rocca Grimalda,44.6710935,8.6472867,AL,986,2
Rocchetta Ligure,44.7065411,9.0500277,AL,987,2
Rosignano Monferrato,45.0798449,8.3990589,AL,988,2
Sala Monferrato,45.0753978,8.3581763,AL,989,2
Sale,44.9847456,8.8089706,AL,990,2
San Cristoforo,44.6924073,8.7499958,AL,991,2
San Giorgio Monferrato,45.1077863,8.4148569,AL,992,2
San Salvatore Monferrato,44.9948033,8.5666904,AL,993,2
San Sebastiano Curone,44.7856067,9.0652433,AL,994,2
Sant'Agata Fossili,44.7859064,8.9189347,AL,995,2
Sardigliano,44.754292,8.9076741,AL,996,2
Sarezzano,44.8675538,8.9153611,AL,997,2
Serralunga di Crea,45.1007411,8.2818606,AL,998,2
Serravalle Scrivia,44.7194648,8.8589917,AL,999,2
Sezzadio,44.7855819,8.5727297,AL,1000,2
Silvano d'Orba,44.6855659,8.6710129,AL,1001,2
Solero,44.9197586,8.5077097,AL,1002,2
Solonghello,45.1309523,8.2818377,AL,1003,2
Spigno Monferrato,44.543024,8.3353027,AL,1004,2
Spineto Scrivia,44.8376236,8.8723825,AL,1005,2
Stazzano,44.7272525,8.8673933,AL,1006,2
Strevi,44.6986567,8.52246,AL,1007,2
Tagliolo Monferrato,44.6390773,8.6682523,AL,1008,2
Tassarolo,44.7265798,8.7695011,AL,1009,2
Terruggia,45.083056,8.4421786,AL,1010,2
Terzo,44.6695304,8.4210536,AL,1011,2
Ticineto,45.0974877,8.5555502,AL,1012,2
Tortona,44.8947397,8.8601589,AL,1013,2
Treville,45.0971413,8.3597585,AL,1014,2
Trisobbio,44.6622963,8.5862757,AL,1015,2
Valenza,45.0144656,8.6462262,AL,1016,2
Valmacca,45.1004646,8.5823372,AL,1017,2
Vignale Monferrato,45.0109305,8.3965366,AL,1018,2
Vignole Borbera,44.7082847,8.8905588,AL,1019,2
Viguzzolo,44.9049194,8.9200804,AL,1020,2
Villadeati,45.0724416,8.1696989,AL,1021,2
Villalvernia,44.8176011,8.8566406,AL,1022,2
Villamiroglio,45.1344466,8.1697573,AL,1023,2
Villanova Monferrato,45.1817906,8.4784678,AL,1024,2
Villaromagnano,44.8510879,8.8871349,AL,1025,2
Visone,44.6620556,8.5032776,AL,1026,2
Volpedo,44.8888012,8.983383,AL,1027,2
Volpeglino,44.8930471,8.958964,AL,1028,2
Voltaggio,44.6201255,8.842657,AL,1029,2
Cassano Spinola,44.7705659,8.8696333,AL,1030,2
Alluvioni Piovera,44.9677769,8.7536049,AL,1031,2
Lu e Cuccaro Monferrato,45.0023858,8.4837614,AL,1032,2
Allein,45.8130096,7.2724783,AO,1033,4
Antey-Saint-André,45.8049657,7.5932085,AO,1034,4
Aosta,45.7375122,7.3201491,AO,1035,4
Arnad,45.6449847,7.7212755,AO,1036,4
Arvier,45.7035684,7.1693041,AO,1037,4
Avise,45.7087107,7.1413297,AO,1038,4
Ayas,45.8140546,7.6881569,AO,1039,4
Aymavilles,45.7013767,7.2405449,AO,1040,4
Bard,45.6079645,7.7466341,AO,1041,4
Bionaz,45.8740793,7.4230709,AO,1042,4
Brissogne,45.7271899,7.4045742,AO,1043,4
Brusson,45.7586279,7.7328122,AO,1044,4
Challand-Saint-Anselme,45.7164084,7.7365646,AO,1045,4
Challand-Saint-Victor,45.689783,7.7064615,AO,1046,4
Chambave,45.7443453,7.5499413,AO,1047,4
Chamois,45.8383677,7.6202844,AO,1048,4
Champdepraz,45.685749,7.6577543,AO,1049,4
Champorcher,45.6236202,7.6207939,AO,1050,4
Charvensod,45.7204438,7.3254073,AO,1051,4
Châtillon,45.7495761,7.6132484,AO,1052,4
Cogne,45.6081108,7.3558966,AO,1053,4
Courmayeur,45.7930597,6.9721103,AO,1054,4
Donnas,45.6034918,7.7674393,AO,1055,4
Doues,45.8192565,7.3066494,AO,1056,4
Emarèse,45.7247084,7.7004409,AO,1057,4
Etroubles,45.8197115,7.232954,AO,1058,4
Fénis,45.7361087,7.494299,AO,1059,4
Fontainemore,45.6490086,7.8609733,AO,1060,4
Gaby,45.7128719,7.8823494,AO,1061,4
Gignod,45.778262,7.2961777,AO,1062,4
Gressan,45.7216299,7.2894405,AO,1063,4
Gressoney-La-Trinité,45.8272526,7.8230854,AO,1064,4
Gressoney-Saint-Jean,45.7770071,7.8275858,AO,1065,4
Hône,45.6118625,7.735733,AO,1066,4
Introd,45.6914789,7.1872175,AO,1067,4
Issime,45.6854598,7.8542158,AO,1068,4
Issogne,45.653958,7.6844172,AO,1069,4
Jovençan,45.7139721,7.2749773,AO,1070,4
La Magdeleine,45.8108078,7.6190993,AO,1071,4
La Salle,45.7468981,7.072596,AO,1072,4
La Thuile,45.7168438,6.9490717,AO,1073,4
Lillianes,45.6327735,7.8450707,AO,1074,4
Montjovet,45.7042245,7.6741872,AO,1075,4
Morgex,45.7569917,7.0360689,AO,1076,4
Nus,45.7392154,7.4669414,AO,1077,4
Ollomont,45.8491128,7.3109029,AO,1078,4
Oyace,45.8507095,7.3825057,AO,1079,4
Perloz,45.6131213,7.8086028,AO,1080,4
Pollein,45.7280585,7.3571718,AO,1081,4
Pontboset,45.606438,7.6876522,AO,1082,4
Pontey,45.7379093,7.5913491,AO,1083,4
Pont-Saint-Martin,45.5998198,7.7977978,AO,1084,4
Pré-Saint-Didier,45.763774,6.9863526,AO,1085,4
Quart,45.740689,7.4156026,AO,1086,4
Rhêmes-Notre-Dame,45.5697142,7.1185287,AO,1087,4
Rhêmes-Saint-Georges,45.6552641,7.1552473,AO,1088,4
Roisan,45.7844334,7.3105788,AO,1089,4
Saint-Christophe,45.74834,7.3578141,AO,1090,4
Saint-Denis,45.7521873,7.5571919,AO,1091,4
Saint-Marcel,45.7324249,7.4482864,AO,1092,4
Saint-Nicolas,45.7166266,7.1678868,AO,1093,4
Saint-Oyen,45.824633,7.2124075,AO,1094,4
Saint-Pierre,45.7104427,7.2262887,AO,1095,4
Saint-Rhémy-en-Bosses,45.8230695,7.1820635,AO,1096,4
Saint-Vincent,45.7502297,7.6475021,AO,1097,4
Sarre,45.7179534,7.2576449,AO,1098,4
Torgnon,45.8014819,7.5712055,AO,1099,4
Valgrisenche,45.6303453,7.0647555,AO,1100,4
Valpelline,45.8264336,7.3285534,AO,1101,4
Valsavarenche,45.5919986,7.2083118,AO,1102,4
Valtournenche,45.877096,7.6227088,AO,1103,4
Verrayes,45.7614537,7.5322539,AO,1104,4
Verrès,45.6687354,7.6899406,AO,1105,4
Villeneuve,45.7027608,7.2077395,AO,1106,4
Airole,43.871914,7.5537342,IM,1107,41
Apricale,43.8804478,7.6604748,IM,1108,41
Aquila d'Arroscia,44.0836723,8.0053808,IM,1109,41
Armo,44.08736,7.9140091,IM,1110,41
Aurigo,43.982997,7.9225641,IM,1111,41
Badalucco,43.9156189,7.8470478,IM,1112,41
Bajardo,43.9034868,7.7182324,IM,1113,41
Bordighera,43.7797422,7.6718889,IM,1114,41
Borghetto d'Arroscia,44.0574515,7.9818271,IM,1115,41
Borgomaro,43.9755854,7.9448964,IM,1116,41
Camporosso,43.8151628,7.6283324,IM,1117,41
Caravonica,43.992325,7.9588782,IM,1118,41
Castellaro,43.864681,7.8683164,IM,1119,41
Castel Vittorio,43.9287266,7.6731857,IM,1120,41
Ceriana,43.8809296,7.7729467,IM,1121,41
Cervo,43.9253209,8.1143923,IM,1122,41
Cesio,44.0076981,7.9749721,IM,1123,41
Chiusanico,43.9732241,7.9916404,IM,1124,41
Chiusavecchia,43.9678747,7.9833273,IM,1125,41
Cipressa,43.8529346,7.9340957,IM,1126,41
Civezza,43.8793189,7.9512847,IM,1127,41
Cosio d'Arroscia,44.0758019,7.8311678,IM,1128,41
Costarainera,43.8545168,7.9412404,IM,1129,41
Diano Arentino,43.9479812,8.0422747,IM,1130,41
Diano Castello,43.9241588,8.0666595,IM,1131,41
Diano Marina,43.9100167,8.0817928,IM,1132,41
Diano San Pietro,43.93114,8.0687894,IM,1133,41
Dolceacqua,43.8481004,7.6234657,IM,1134,41
Dolcedo,43.9069224,7.9517765,IM,1135,41
Imperia,43.8856884,8.0278506,IM,1136,41
Isolabona,43.8799725,7.6388632,IM,1137,41
Lucinasco,43.9677587,7.9627524,IM,1138,41
Mendatica,44.0763582,7.8055599,IM,1139,41
Molini di Triora,43.9901246,7.7743299,IM,1140,41
Montegrosso Pian Latte,44.0665945,7.8178446,IM,1141,41
Olivetta San Michele,43.8797903,7.5155031,IM,1142,41
Ospedaletti,43.800723,7.7177018,IM,1143,41
Perinaldo,43.8661809,7.6742398,IM,1144,41
Pietrabruna,43.8899565,7.9034762,IM,1145,41
Pieve di Teco,44.0469822,7.9152154,IM,1146,41
Pigna,43.9329923,7.6633807,IM,1147,41
Pompeiana,43.8527632,7.8885285,IM,1148,41
Pontedassio,43.9404276,8.0126944,IM,1149,41
Pornassio,44.0702531,7.8709539,IM,1150,41
Prelà,43.9262062,7.9369917,IM,1151,41
Ranzo,44.0595458,8.0144682,IM,1152,41
Rezzo,44.0202976,7.8721575,IM,1153,41
Riva Ligure,43.8375052,7.8817125,IM,1154,41
Rocchetta Nervina,43.8901585,7.6002952,IM,1155,41
San Bartolomeo al Mare,43.9284954,8.1021686,IM,1156,41
San Biagio della Cima,43.8187688,7.6498503,IM,1157,41
San Lorenzo al Mare,43.8535908,7.9638818,IM,1158,41
Sanremo,43.820981,7.784633,IM,1159,41
Santo Stefano al Mare,43.8372295,7.8990784,IM,1160,41
Seborga,43.8258641,7.6941607,IM,1161,41
Soldano,43.8267039,7.65408,IM,1162,41
Taggia,43.8436087,7.8505232,IM,1163,41
Terzorio,43.8528218,7.8982479,IM,1164,41
Triora,43.9937968,7.7621127,IM,1165,41
Vallebona,43.8132615,7.6668365,IM,1166,41
Vallecrosia,43.7931629,7.6437876,IM,1167,41
Vasia,43.9330058,7.9541079,IM,1168,41
Ventimiglia,43.790018,7.6086353,IM,1169,41
Vessalico,44.0462117,7.9622468,IM,1170,41
Villa Faraldi,43.9670748,8.0914672,IM,1171,41
Montalto Carpasio,43.9461741,7.8503602,IM,1172,41
Alassio,44.0080222,8.1729613,SV,1173,90
Albenga,44.0490915,8.2129474,SV,1174,90
Albissola Marina,44.3272366,8.5031814,SV,1175,90
Albisola Superiore,44.3396755,8.5103396,SV,1176,90
Altare,44.3347713,8.3439315,SV,1177,90
Andora,43.9582305,8.1400348,SV,1178,90
Arnasco,44.0779834,8.1069681,SV,1179,90
Balestrino,44.1248827,8.1745869,SV,1180,90
Bardineto,44.1920828,8.1293889,SV,1181,90
Bergeggi,44.2490483,8.444101,SV,1182,90
Boissano,44.134228,8.2212316,SV,1183,90
Borghetto Santo Spirito,44.1153694,8.2419882,SV,1184,90
Borgio Verezzi,44.1598605,8.3045611,SV,1185,90
Bormida,44.2786447,8.2326114,SV,1186,90
Cairo Montenotte,44.3997074,8.2741727,SV,1187,90
Calice Ligure,44.2049045,8.2942695,SV,1188,90
Calizzano,44.235183,8.1153716,SV,1189,90
Carcare,44.3579556,8.2908282,SV,1190,90
Casanova Lerrone,44.0315782,8.0482772,SV,1191,90
Castelbianco,44.1132008,8.0747994,SV,1192,90
Castelvecchio di Rocca Barbena,44.1303687,8.1155061,SV,1193,90
Celle Ligure,44.3420502,8.5452236,SV,1194,90
Cengio,44.3875528,8.2084098,SV,1195,90
Ceriale,44.0963417,8.2320661,SV,1196,90
Cisano sul Neva,44.0872783,8.1449606,SV,1197,90
Cosseria,44.368502,8.2344564,SV,1198,90
Dego,44.4495854,8.310382,SV,1199,90
Erli,44.1365482,8.1053312,SV,1200,90
Finale Ligure,44.1690091,8.3436046,SV,1201,90
Garlenda,44.0335846,8.0967961,SV,1202,90
Giustenice,44.1723119,8.246216,SV,1203,90
Giusvalla,44.4494693,8.3937269,SV,1204,90
Laigueglia,43.9746022,8.1581444,SV,1205,90
Loano,44.1291586,8.2597773,SV,1206,90
Magliolo,44.191623,8.2501862,SV,1207,90
Mallare,44.2914539,8.2975768,SV,1208,90
Massimino,44.2993814,8.0711602,SV,1209,90
Millesimo,44.3644121,8.2058184,SV,1210,90
Mioglia,44.489852,8.4112729,SV,1211,90
Murialdo,44.3161602,8.161357,SV,1212,90
Nasino,44.1150991,8.0278418,SV,1213,90
Noli,44.2056498,8.4161844,SV,1214,90
Onzo,44.0695763,8.0514115,SV,1215,90
Orco Feglino,44.2195535,8.325162,SV,1216,90
Ortovero,44.0538113,8.0910885,SV,1217,90
Osiglia,44.280779,8.2006191,SV,1218,90
Pallare,44.3276203,8.2749643,SV,1219,90
Piana Crixia,44.4852627,8.3075121,SV,1220,90
Pietra Ligure,44.1488471,8.2828272,SV,1221,90
Plodio,44.3565203,8.2435229,SV,1222,90
Pontinvrea,44.444887,8.4345702,SV,1223,90
Quiliano,44.2934099,8.4113798,SV,1224,90
Rialto,44.2195947,8.2747214,SV,1225,90
Roccavignale,44.3618745,8.1920123,SV,1226,90
Sassello,44.4790272,8.4899453,SV,1227,90
Savona,44.3074927,8.4811088,SV,1228,90
Spotorno,44.2271587,8.4194628,SV,1229,90
Stella,44.3968814,8.4930781,SV,1230,90
Stellanello,44.0003014,8.0593307,SV,1231,90
Testico,44.0053528,8.0309741,SV,1232,90
Toirano,44.1269032,8.2071936,SV,1233,90
Tovo San Giacomo,44.176688,8.2685381,SV,1234,90
Urbe,44.4877447,8.5923872,SV,1235,90
Vado Ligure,44.2693257,8.4362807,SV,1236,90
Varazze,44.3599878,8.5763981,SV,1237,90
Vendone,44.073996,8.0742597,SV,1238,90
Vezzi Portio,44.2289334,8.3619475,SV,1239,90
Villanova d'Albenga,44.045885,8.1430809,SV,1240,90
Zuccarello,44.1113325,8.1156583,SV,1241,90
Arenzano,44.4017827,8.6822606,GE,1242,38
Avegno,44.3822961,9.1587177,GE,1243,38
Bargagli,44.4446331,9.0883387,GE,1244,38
Bogliasco,44.3782107,9.0697813,GE,1245,38
Borzonasca,44.4221928,9.3867974,GE,1246,38
Busalla,44.5707931,8.9449805,GE,1247,38
Camogli,44.3467936,9.1571384,GE,1248,38
Campo Ligure,44.5383796,8.6976292,GE,1249,38
Campomorone,44.5066865,8.8926758,GE,1250,38
Carasco,44.3513034,9.3440404,GE,1251,38
Casarza Ligure,44.2746082,9.4534569,GE,1252,38
Casella,44.5349873,8.9991988,GE,1253,38
Castiglione Chiavarese,44.2746986,9.513548,GE,1254,38
Ceranesi,44.5039261,8.8945971,GE,1255,38
Chiavari,44.3166989,9.324017,GE,1256,38
Cicagna,44.4085895,9.2359489,GE,1257,38
Cogoleto,44.3894582,8.6463299,GE,1258,38
Cogorno,44.3286344,9.3521727,GE,1259,38
Coreglia Ligure,44.3920341,9.2669873,GE,1260,38
Crocefieschi,44.5848167,9.0228175,GE,1261,38
Davagna,44.4647349,9.0866897,GE,1262,38
Fascia,44.5644819,9.2362667,GE,1263,38
Favale di Malvaro,44.4520292,9.2580251,GE,1264,38
Fontanigorda,44.5465479,9.304948,GE,1265,38
Genova,44.4114827,8.9326992,GE,1266,38
Gorreto,44.6049614,9.2920949,GE,1267,38
Isola del Cantone,44.6458385,8.9559704,GE,1268,38
Lavagna,44.3071457,9.3440367,GE,1269,38
Leivi,44.345512,9.3182163,GE,1270,38
Lorsica,44.4323345,9.2743344,GE,1271,38
Lumarzo,44.4435587,9.1373208,GE,1272,38
Masone,44.5036272,8.7116929,GE,1273,38
Mele,44.445393,8.7480287,GE,1274,38
Mezzanego,44.3836866,9.3769056,GE,1275,38
Mignanego,44.5276349,8.9146833,GE,1276,38
Moconesi,44.4195185,9.2123474,GE,1277,38
Moneglia,44.2385357,9.4901268,GE,1278,38
Montebruno,44.5270846,9.2497904,GE,1279,38
Montoggio,44.5155717,9.0441989,GE,1280,38
Ne,44.3443558,9.3984203,GE,1281,38
Neirone,44.4542452,9.190901,GE,1282,38
Orero,44.4072238,9.2746015,GE,1283,38
Pieve Ligure,44.3746594,9.0868903,GE,1284,38
Portofino,44.3040798,9.2072288,GE,1285,38
Propata,44.5647089,9.1848828,GE,1286,38
Rapallo,44.3501632,9.2317468,GE,1287,38
Recco,44.3621819,9.143549,GE,1288,38
Rezzoaglio,44.5256979,9.3866581,GE,1289,38
Ronco Scrivia,44.6081958,8.954988,GE,1290,38
Rondanina,44.5623489,9.217609,GE,1291,38
Rossiglione,44.5621053,8.6705351,GE,1292,38
Rovegno,44.577106,9.278673,GE,1293,38
San Colombano Certenoli,44.3717209,9.3131235,GE,1294,38
Santa Margherita Ligure,44.3348582,9.2099246,GE,1295,38
Sant'Olcese,44.4836564,8.9676797,GE,1296,38
Santo Stefano d'Aveto,44.5478205,9.4509266,GE,1297,38
Savignone,44.5637275,8.9879556,GE,1298,38
Serra Riccò,44.5078406,8.936045,GE,1299,38
Sestri Levante,44.269888,9.3931623,GE,1300,38
Sori,44.372777,9.1043651,GE,1301,38
Tiglieto,44.5253484,8.6204455,GE,1302,38
Torriglia,44.5190106,9.1577778,GE,1303,38
Tribogna,44.4162641,9.1955997,GE,1304,38
Uscio,44.4131909,9.1632877,GE,1305,38
Valbrevenna,44.5565213,9.065026,GE,1306,38
Vobbia,44.599759,9.0398234,GE,1307,38
Zoagli,44.3370226,9.2672431,GE,1308,38
Ameglia,44.0657315,9.9572684,SP,1309,86
Arcola,44.1145998,9.9058502,SP,1310,86
Beverino,44.1940556,9.7692788,SP,1311,86
Bolano,44.1888528,9.8952884,SP,1312,86
Bonassola,44.1833461,9.584102,SP,1313,86
Borghetto di Vara,44.2235064,9.7216093,SP,1314,86
Brugnato,44.2368525,9.7250221,SP,1315,86
Calice al Cornoviglio,44.2424653,9.8358309,SP,1316,86
Carro,44.2726995,9.6082586,SP,1317,86
Carrodano,44.242065,9.656159,SP,1318,86
Castelnuovo Magra,44.0984517,10.0182022,SP,1319,86
Deiva Marina,44.2188503,9.5205607,SP,1320,86
Follo,44.1626933,9.8621476,SP,1321,86
Framura,44.2089052,9.5543579,SP,1322,86
La Spezia,44.107035,9.8281895,SP,1323,86
Lerici,44.0760175,9.9109827,SP,1324,86
Levanto,44.1699612,9.6124648,SP,1325,86
Maissana,44.3366603,9.5350179,SP,1326,86
Monterosso al Mare,44.1462812,9.6561365,SP,1327,86
Luni,44.0849556,10.0420289,SP,1328,86
Pignone,44.1791457,9.7240459,SP,1329,86
Portovenere,44.0557766,9.8370049,SP,1330,86
Riccò del Golfo di Spezia,44.1555442,9.7634234,SP,1331,86
Riomaggiore,44.0997167,9.7381498,SP,1332,86
Rocchetta di Vara,44.2511775,9.7568904,SP,1333,86
Santo Stefano di Magra,44.1623971,9.9150973,SP,1334,86
Sarzana,44.1129151,9.959676,SP,1335,86
Sesta Godano,44.293983,9.6757239,SP,1336,86
Varese Ligure,44.37772,9.5956794,SP,1337,86
Vernazza,44.1352155,9.6837322,SP,1338,86
Vezzano Ligure,44.1413455,9.8844786,SP,1339,86
Zignago,44.2775289,9.7449583,SP,1340,86
Agra,46.0341012,8.7714462,VA,1341,100
Albizzate,45.7237452,8.803548,VA,1342,100
Angera,45.7724905,8.5750547,VA,1343,100
Arcisate,45.8593769,8.859796,VA,1344,100
Arsago Seprio,45.6879998,8.7310294,VA,1345,100
Azzate,45.7819851,8.7968612,VA,1346,100
Azzio,45.8853729,8.7062968,VA,1347,100
Barasso,45.8404787,8.7581038,VA,1348,100
Bedero Valcuvia,45.9126476,8.7944129,VA,1349,100
Besano,45.8892429,8.8899486,VA,1350,100
Besnate,45.7003636,8.7694001,VA,1351,100
Besozzo,45.8516271,8.6651545,VA,1352,100
Biandronno,45.8194045,8.7123263,VA,1353,100
Bisuschio,45.8724256,8.8703583,VA,1354,100
Bodio Lomnago,45.7898998,8.7514329,VA,1355,100
Brebbia,45.8285779,8.649869,VA,1356,100
Brenta,45.8952206,8.6841501,VA,1357,100
Brezzo di Bedero,45.9779019,8.7183917,VA,1358,100
Brinzio,45.889147,8.7868065,VA,1359,100
Brissago-Valtravaglia,45.9496335,8.7464112,VA,1360,100
Brunello,45.7661671,8.7958022,VA,1361,100
Brusimpiano,45.9472013,8.8896034,VA,1362,100
Buguggiate,45.7852677,8.8067573,VA,1363,100
Busto Arsizio,45.6150915,8.8549419,VA,1364,100
Cadegliano-Viconago,45.9587903,8.844665,VA,1365,100
Cairate,45.6920361,8.870813,VA,1366,100
Cantello,45.8210683,8.8969693,VA,1367,100
Caravate,45.8795169,8.6554768,VA,1368,100
Cardano al Campo,45.646621,8.7745785,VA,1369,100
Carnago,45.7182926,8.8362717,VA,1370,100
Caronno Pertusella,45.5968257,9.047868,VA,1371,100
Caronno Varesino,45.7388018,8.8309885,VA,1372,100
Casale Litta,45.7674002,8.7403368,VA,1373,100
Casalzuigno,45.9032813,8.7055078,VA,1374,100
Casciago,45.834785,8.7843793,VA,1375,100
Casorate Sempione,45.6717219,8.7403179,VA,1376,100
Cassano Magnago,45.6743893,8.8208252,VA,1377,100
Cassano Valcuvia,45.9325891,8.7681767,VA,1378,100
Castellanza,45.6114782,8.8975879,VA,1379,100
Castello Cabiaglio,45.8925597,8.7548188,VA,1380,100
Castelseprio,45.7169623,8.8612739,VA,1381,100
Castelveccana,45.9465457,8.6648318,VA,1382,100
Castiglione Olona,45.7563943,8.8680809,VA,1383,100
Castronno,45.7469707,8.8128895,VA,1384,100
Cavaria con Premezzo,45.6945576,8.7976803,VA,1385,100
Cazzago Brabbia,45.7953614,8.7352758,VA,1386,100
Cislago,45.6617568,8.9706213,VA,1387,100
Cittiglio,45.8946743,8.668713,VA,1388,100
Clivio,45.8644697,8.93359,VA,1389,100
Cocquio-Trevisago,45.8578906,8.6965464,VA,1390,100
Comabbio,45.7726464,8.6746659,VA,1391,100
Comerio,45.8426331,8.7470937,VA,1392,100
Cremenaga,45.9892569,8.8065921,VA,1393,100
Crosio della Valle,45.7616444,8.767569,VA,1394,100
Cuasso al Monte,45.914416,8.8798154,VA,1395,100
Cugliate-Fabiasco,45.9470426,8.8206542,VA,1396,100
Cunardo,45.9378271,8.802254,VA,1397,100
Curiglia con Monteviasco,46.0606636,8.8048167,VA,1398,100
Cuveglio,45.9059775,8.7358352,VA,1399,100
Cuvio,45.8980427,8.731387,VA,1400,100
Daverio,45.7771193,8.7715058,VA,1401,100
Dumenza,46.0227849,8.7848557,VA,1402,100
Duno,45.9140695,8.7385415,VA,1403,100
Fagnano Olona,45.6696083,8.8741081,VA,1404,100
Ferno,45.6102761,8.7588499,VA,1405,100
Ferrera di Varese,45.9323411,8.7881832,VA,1406,100
Gallarate,45.6601911,8.7932992,VA,1407,100
Galliate Lombardo,45.7863017,8.7685334,VA,1408,100
Gavirate,45.8411429,8.724771,VA,1409,100
Gazzada Schianno,45.7802605,8.8255835,VA,1410,100
Gemonio,45.8774311,8.6788489,VA,1411,100
Gerenzano,45.6384452,8.9985806,VA,1412,100
Germignaga,45.9934149,8.7268042,VA,1413,100
Golasecca,45.6968656,8.6550979,VA,1414,100
Gorla Maggiore,45.6660994,8.8935248,VA,1415,100
Gorla Minore,45.6432687,8.8965086,VA,1416,100
Gornate Olona,45.7377585,8.8591011,VA,1417,100
Grantola,45.9496193,8.7707666,VA,1418,100
Inarzo,45.7867861,8.7364261,VA,1419,100
Induno Olona,45.8519775,8.8385657,VA,1420,100
Ispra,45.8161833,8.6102656,VA,1421,100
Jerago con Orago,45.7052582,8.7925382,VA,1422,100
Lavena Ponte Tresa,45.9609377,8.8610751,VA,1423,100
Laveno-Mombello,45.9157982,8.6153561,VA,1424,100
Leggiuno,45.8756383,8.6193311,VA,1425,100
Lonate Ceppino,45.7052966,8.8762724,VA,1426,100
Lonate Pozzolo,45.6000663,8.7523738,VA,1427,100
Lozza,45.7754898,8.8570558,VA,1428,100
Luino,46.0025042,8.7424293,VA,1429,100
Luvinate,45.8395657,8.7724643,VA,1430,100
Malnate,45.7995364,8.8811109,VA,1431,100
Marchirolo,45.9516011,8.8357696,VA,1432,100
Marnate,45.6284846,8.9038706,VA,1433,100
Marzio,45.9378545,8.8577694,VA,1434,100
Masciago Primo,45.9164334,8.7808034,VA,1435,100
Mercallo,45.7467346,8.6721033,VA,1436,100
Mesenzana,45.947031,8.7588133,VA,1437,100
Montegrino Valtravaglia,45.9734668,8.7681214,VA,1438,100
Monvalle,45.857604,8.6320465,VA,1439,100
Morazzone,45.7691712,8.8293743,VA,1440,100
Mornago,45.7476032,8.7523972,VA,1441,100
Oggiona con Santo Stefano,45.6973111,8.8184658,VA,1442,100
Olgiate Olona,45.6277727,8.8907926,VA,1443,100
Origgio,45.5996387,9.0178211,VA,1444,100
Orino,45.8818011,8.7129266,VA,1445,100
Porto Ceresio,45.904029,8.9062794,VA,1446,100
Porto Valtravaglia,45.960834,8.6803437,VA,1447,100
Rancio Valcuvia,45.9163377,8.770196,VA,1448,100
Ranco,45.7984649,8.5747294,VA,1449,100
Saltrio,45.8735712,8.9243819,VA,1450,100
Samarate,45.630936,8.7825987,VA,1451,100
Saronno,45.6237471,9.0364046,VA,1452,100
Sesto Calende,45.7238026,8.6316423,VA,1453,100
Solbiate Arno,45.7205781,8.813467,VA,1454,100
Solbiate Olona,45.6536043,8.8873411,VA,1455,100
Somma Lombardo,45.6837851,8.7043524,VA,1456,100
Sumirago,45.7402939,8.7793726,VA,1457,100
Taino,45.7649981,8.61659,VA,1458,100
Ternate,45.7823885,8.6947981,VA,1459,100
Tradate,45.7137688,8.9056948,VA,1460,100
Travedona-Monate,45.8057153,8.6772608,VA,1461,100
Tronzano Lago Maggiore,46.0914805,8.7355186,VA,1462,100
Uboldo,45.6107202,9.0030687,VA,1463,100
Valganna,45.9027787,8.8239474,VA,1464,100
Varano Borghi,45.7778003,8.7019374,VA,1465,100
Varese,45.8170272,8.8228683,VA,1466,100
Vedano Olona,45.7767219,8.8863565,VA,1467,100
Venegono Inferiore,45.7358888,8.899433,VA,1468,100
Venegono Superiore,45.7491339,8.9017164,VA,1469,100
Vergiate,45.7245445,8.6954015,VA,1470,100
Viggiù,45.872022,8.9070404,VA,1471,100
Vizzola Ticino,45.6312425,8.6850507,VA,1472,100
Sangiano,45.8763025,8.6317904,VA,1473,100
Maccagno con Pino e Veddasca,46.0724448,8.7658249,VA,1474,100
Cadrezzate con Osmate,45.791459,8.6480888,VA,1475,100
Bardello con Malgesso e Bregano,45.8267044,8.6847709,VA,1476,100
Albavilla,45.8011049,9.1893001,CO,1477,26
Albese con Cassano,45.7954437,9.1647435,CO,1478,26
Albiolo,45.8068111,8.9373625,CO,1479,26
Alserio,45.7786987,9.1983729,CO,1480,26
Alzate Brianza,45.7669897,9.1820258,CO,1481,26
Anzano del Parco,45.7708742,9.1987596,CO,1482,26
Appiano Gentile,45.7350135,8.9794917,CO,1483,26
Argegno,45.9450958,9.1274029,CO,1484,26
Arosio,45.7166563,9.2076673,CO,1485,26
Asso,45.8616663,9.2694189,CO,1486,26
Barni,45.9108874,9.2639669,CO,1487,26
Bene Lario,46.0286387,9.1836036,CO,1488,26
Beregazzo con Figliaro,45.7758893,8.9508768,CO,1489,26
Binago,45.7846959,8.9225656,CO,1490,26
Bizzarone,45.8350499,8.9459647,CO,1491,26
Blessagno,45.9599064,9.097391,CO,1492,26
Blevio,45.8406517,9.1048648,CO,1493,26
Bregnano,45.6989713,9.0625241,CO,1494,26
Brenna,45.7416511,9.187753,CO,1495,26
Brienno,45.9117541,9.1313905,CO,1496,26
Brunate,45.8197822,9.0964159,CO,1497,26
Bulgarograsso,45.7481439,9.0110125,CO,1498,26
Cabiate,45.6732062,9.1667028,CO,1499,26
Cadorago,45.7239128,9.0337473,CO,1500,26
Caglio,45.8705835,9.2363157,CO,1501,26
Campione d'Italia,45.9700921,8.970754,CO,1502,26
Cantù,45.7393958,9.1265807,CO,1503,26
Canzo,45.8500484,9.2735022,CO,1504,26
Capiago Intimiano,45.7721325,9.1243087,CO,1505,26
Carate Urio,45.8719776,9.122397,CO,1506,26
Carbonate,45.6850697,8.9404021,CO,1507,26
Carimate,45.7026944,9.115251,CO,1508,26
Carlazzo,46.0492099,9.1564941,CO,1509,26
Carugo,45.709978,9.1891544,CO,1510,26
Caslino d'Erba,45.8375713,9.2271218,CO,1511,26
Casnate con Bernate,45.7568018,9.0746556,CO,1512,26
Cassina Rizzardi,45.7510493,9.0303899,CO,1513,26
Castelmarte,45.8325195,9.2333598,CO,1514,26
Castelnuovo Bozzente,45.7634608,8.9413797,CO,1515,26
Cavargna,46.0906899,9.1120259,CO,1516,26
Cerano d'Intelvi,45.9444763,9.087643,CO,1517,26
Cermenate,45.6985756,9.0826873,CO,1518,26
Cernobbio,45.8396353,9.0743534,CO,1519,26
Cirimido,45.6988224,9.0110864,CO,1520,26
Claino con Osteno,46.0069312,9.0843408,CO,1521,26
Colonno,45.9577463,9.1540999,CO,1522,26
Como,45.8100015,9.0851596,CO,1523,26
Corrido,46.0474332,9.1370139,CO,1524,26
Cremia,46.0858119,9.2707258,CO,1525,26
Cucciago,45.7388979,9.0915033,CO,1526,26
Cusino,46.0743922,9.1527515,CO,1527,26
Dizzasco,45.9438846,9.1014646,CO,1528,26
Domaso,46.1519614,9.3284669,CO,1529,26
Dongo,46.123042,9.2794985,CO,1530,26
Dosso del Liro,46.1636987,9.2736963,CO,1531,26
Erba,45.8119454,9.2231832,CO,1532,26
Eupilio,45.8169334,9.2677027,CO,1533,26
Faggeto Lario,45.8580908,9.1598377,CO,1534,26
Faloppio,45.8121849,8.9632013,CO,1535,26
Fenegrò,45.7016083,9.0027309,CO,1536,26
Figino Serenza,45.7116402,9.1271939,CO,1537,26
Fino Mornasco,45.7461259,9.0485789,CO,1538,26
Garzeno,46.1341057,9.2498564,CO,1539,26
Gera Lario,46.1706407,9.371102,CO,1540,26
Grandate,45.7739035,9.0583,CO,1541,26
Grandola ed Uniti,46.0313309,9.2071327,CO,1542,26
Griante,45.9969568,9.2350095,CO,1543,26
Guanzate,45.7243223,9.0109487,CO,1544,26
Inverigo,45.7329364,9.2149353,CO,1545,26
Laglio,45.8835331,9.1400701,CO,1546,26
Laino,45.98331,9.0738553,CO,1547,26
Lambrugo,45.7584749,9.2415145,CO,1548,26
Lasnigo,45.880698,9.2640702,CO,1549,26
Lezzeno,45.9454753,9.1910858,CO,1550,26
Limido Comasco,45.6897117,8.9827078,CO,1551,26
Lipomo,45.79481,9.1214792,CO,1552,26
Livo,46.168923,9.3041966,CO,1553,26
Locate Varesino,45.6903606,8.9308176,CO,1554,26
Lomazzo,45.6990334,9.0401493,CO,1555,26
Longone al Segrino,45.8172582,9.2509977,CO,1556,26
Luisago,45.7612267,9.0434567,CO,1557,26
Lurago d'Erba,45.7534946,9.2247363,CO,1558,26
Lurago Marinone,45.7078155,8.9839463,CO,1559,26
Lurate Caccivio,45.7655639,9.0006797,CO,1560,26
Magreglio,45.9200358,9.2618948,CO,1561,26
Mariano Comense,45.6971062,9.182511,CO,1562,26
Maslianico,45.8425747,9.0484652,CO,1563,26
Menaggio,46.0211166,9.2389108,CO,1564,26
Merone,45.7863946,9.2451163,CO,1565,26
Moltrasio,45.8591629,9.0958434,CO,1566,26
Monguzzo,45.7828364,9.2321691,CO,1567,26
Montano Lucino,45.7863113,9.0412798,CO,1568,26
Montemezzo,46.1785069,9.3769808,CO,1569,26
Montorfano,45.7854131,9.1444955,CO,1570,26
Mozzate,45.6749979,8.9559433,CO,1571,26
Musso,46.1108337,9.2736782,CO,1572,26
Nesso,45.9107392,9.1590016,CO,1573,26
Novedrate,45.6975852,9.1234867,CO,1574,26
Olgiate Comasco,45.7858386,8.9674848,CO,1575,26
Oltrona di San Mamette,45.7580646,8.9759751,CO,1576,26
Orsenigo,45.7783093,9.185062,CO,1577,26
Peglio,46.1601953,9.2947905,CO,1578,26
Pianello del Lario,46.1003994,9.2764746,CO,1579,26
Pigra,45.9573594,9.1264638,CO,1580,26
Plesio,46.0441912,9.2278636,CO,1581,26
Pognana Lario,45.8774081,9.1578372,CO,1582,26
Ponna,45.9896518,9.094012,CO,1583,26
Ponte Lambro,45.827004,9.2249175,CO,1584,26
Porlezza,46.0364264,9.1198142,CO,1585,26
Proserpio,45.8276614,9.2488655,CO,1586,26
Pusiano,45.8147887,9.2821438,CO,1587,26
Rezzago,45.8667379,9.2486022,CO,1588,26
Rodero,45.8226411,8.9133882,CO,1589,26
Rovellasca,45.6679528,9.0522964,CO,1590,26
Rovello Porro,45.6544073,9.0398195,CO,1591,26
Sala Comacina,45.9642748,9.1659959,CO,1592,26
San Bartolomeo Val Cavargna,46.0825193,9.1462228,CO,1593,26
San Fermo della Battaglia,45.808478,9.0462075,CO,1594,26
San Nazzaro Val Cavargna,46.0892395,9.130647,CO,1595,26
Schignano,45.9279193,9.1023646,CO,1596,26
Senna Comasco,45.7633347,9.1073261,CO,1597,26
Sorico,46.172137,9.3797872,CO,1598,26
Sormano,45.8794504,9.2470768,CO,1599,26
Stazzona,46.1390012,9.2772597,CO,1600,26
Tavernerio,45.7975626,9.1504284,CO,1601,26
Torno,45.8587257,9.1189214,CO,1602,26
Trezzone,46.1714783,9.3553354,CO,1603,26
Turate,45.6550764,9.001214,CO,1604,26
Valbrona,45.8777991,9.2967727,CO,1605,26
Valmorea,45.8132993,8.9306308,CO,1606,26
Val Rezzo,46.072304,9.1106218,CO,1607,26
Valsolda,46.024474,9.0561327,CO,1608,26
Veleso,45.9087576,9.1808764,CO,1609,26
Veniano,45.7162981,8.9849856,CO,1610,26
Vercana,46.1600305,9.3304331,CO,1611,26
Vertemate con Minoprio,45.7251762,9.0721673,CO,1612,26
Casarile,45.317595,9.1032045,MI,1727,53
Villa Guardia,45.7747385,9.0259151,CO,1613,26
Zelbio,45.9050423,9.180892,CO,1614,26
San Siro,46.0552303,9.2585106,CO,1615,26
Gravedona ed Uniti,46.1481228,9.3062297,CO,1616,26
Bellagio,45.9556379,9.2495086,CO,1617,26
Colverde,45.8057001,9.0010932,CO,1618,26
Tremezzina,45.9845564,9.1874225,CO,1619,26
Alta Valle Intelvi,45.9756684,9.0363648,CO,1620,26
Centro Valle Intelvi,45.9469799,9.0612123,CO,1621,26
Solbiate con Cagno,45.8005365,8.9197058,CO,1622,26
Uggiate con Ronago ,45.8269418,8.9741899,CO,1623,26
Albaredo per San Marco,46.1029401,9.5904391,SO,1624,85
Albosaggia,46.1474133,9.8546542,SO,1625,85
Andalo Valtellino,46.1344942,9.4730135,SO,1626,85
Aprica,46.1533634,10.1520638,SO,1627,85
Ardenno,46.1727761,9.6517225,SO,1628,85
Bema,46.1083329,9.5645647,SO,1629,85
Berbenno di Valtellina,46.1687384,9.7431898,SO,1630,85
Bianzone,46.1839501,10.1093025,SO,1631,85
Bormio,46.4701801,10.3755956,SO,1632,85
Buglio in Monte,46.1833699,9.6753916,SO,1633,85
Caiolo,46.1523337,9.817057,SO,1634,85
Campodolcino,46.4021525,9.3543111,SO,1635,85
Caspoggio,46.2647432,9.8617702,SO,1636,85
Castello dell'Acqua,46.1455007,10.0157901,SO,1637,85
Castione Andevenno,46.1728778,9.8002975,SO,1638,85
Cedrasco,46.1493299,9.7680043,SO,1639,85
Cercino,46.157793,9.5081831,SO,1640,85
Chiavenna,46.3210455,9.4054877,SO,1641,85
Chiesa in Valmalenco,46.2637861,9.8483266,SO,1642,85
Chiuro,46.1695724,9.9892126,SO,1643,85
Cino,46.158444,9.485311,SO,1644,85
Civo,46.1563611,9.5812143,SO,1645,85
Colorina,46.1518606,9.7334634,SO,1646,85
Cosio Valtellino,46.1303982,9.5498684,SO,1647,85
Dazio,46.1607399,9.6002021,SO,1648,85
Delebio,46.1371715,9.4592551,SO,1649,85
Dubino,46.1530131,9.4608813,SO,1650,85
Faedo Valtellino,46.1530976,9.9063272,SO,1651,85
Forcola,46.1582458,9.6610695,SO,1652,85
Fusine,46.1494822,9.7501077,SO,1653,85
Gerola Alta,46.0600416,9.5502256,SO,1654,85
Gordona,46.2917028,9.3685863,SO,1655,85
Grosio,46.2973198,10.2757185,SO,1656,85
Grosotto,46.2787973,10.2571319,SO,1657,85
Madesimo,46.4281701,9.3441756,SO,1658,85
Lanzada,46.2694072,9.8739146,SO,1659,85
Livigno,46.5386945,10.1348109,SO,1660,85
Lovero,46.2308568,10.2302963,SO,1661,85
Mantello,46.1529184,9.4880478,SO,1662,85
Mazzo di Valtellina,46.2564998,10.2548034,SO,1663,85
Mello,46.1546441,9.5442646,SO,1664,85
Mese,46.304471,9.3794568,SO,1665,85
Montagna in Valtellina,46.1782622,9.9006501,SO,1666,85
Morbegno,46.1304709,9.569781,SO,1667,85
Novate Mezzola,46.2219989,9.4468225,SO,1668,85
Pedesina,46.0822359,9.5495254,SO,1669,85
Piantedo,46.133941,9.4315046,SO,1670,85
Piateda,46.1597678,9.9388871,SO,1671,85
Piuro,46.3294864,9.4208522,SO,1672,85
Poggiridenti,46.1758831,9.9286571,SO,1673,85
Ponte in Valtellina,46.1744056,9.9774899,SO,1674,85
Postalesio,46.1737998,9.7765617,SO,1675,85
Prata Camportaccio,46.3064092,9.3949984,SO,1676,85
Rasura,46.1007579,9.5529222,SO,1677,85
Rogolo,46.1363146,9.487928,SO,1678,85
Samolaco,46.2442356,9.3951233,SO,1679,85
San Giacomo Filippo,46.3371595,9.3704278,SO,1680,85
Sernio,46.225125,10.2033257,SO,1681,85
Sondalo,46.3320463,10.3236782,SO,1682,85
Sondrio,46.1710083,9.8714751,SO,1683,85
Spriana,46.2201649,9.8644696,SO,1684,85
Talamona,46.1375259,9.6094728,SO,1685,85
Tartano,46.1053332,9.6793121,SO,1686,85
Teglio,46.1722774,10.0632805,SO,1687,85
Tirano,46.216887,10.1753154,SO,1688,85
Torre di Santa Maria,46.2326327,9.852096,SO,1689,85
Tovo di Sant'Agata,46.2450604,10.2466713,SO,1690,85
Traona,46.1468937,9.5267826,SO,1691,85
Tresivio,46.1747113,9.9453816,SO,1692,85
Valdidentro,46.4893533,10.2968061,SO,1693,85
Valdisotto,46.4316911,10.355111,SO,1694,85
Valfurva,46.4631,10.4108609,SO,1695,85
Val Masino,46.2110998,9.6366362,SO,1696,85
Verceia,46.1966487,9.4527608,SO,1697,85
Vervio,46.2528679,10.2405321,SO,1698,85
Villa di Chiavenna,46.3312557,9.4889699,SO,1699,85
Villa di Tirano,46.2026993,10.1332071,SO,1700,85
Abbiategrasso,45.3985804,8.9174856,MI,1701,53
Albairate,45.4187106,8.9351739,MI,1702,53
Arconate,45.5415619,8.8515151,MI,1703,53
Arese,45.5498785,9.0785758,MI,1704,53
Arluno,45.508999,8.9500299,MI,1705,53
Assago,45.404365,9.1311488,MI,1706,53
Bareggio,45.4764643,8.9938189,MI,1707,53
Basiano,45.5744278,9.468202,MI,1708,53
Basiglio,45.3627207,9.1614742,MI,1709,53
Bellinzago Lombardo,45.5408366,9.4459706,MI,1710,53
Bernate Ticino,45.4793351,8.8159259,MI,1711,53
Besate,45.3122495,8.9673176,MI,1712,53
Binasco,45.3322013,9.0996586,MI,1713,53
Boffalora sopra Ticino,45.4643644,8.8284907,MI,1714,53
Bollate,45.5438496,9.1176551,MI,1715,53
Bresso,45.5376064,9.1876298,MI,1716,53
Bubbiano,45.3273282,9.0133698,MI,1717,53
Buccinasco,45.4212735,9.1075751,MI,1718,53
Buscate,45.5460078,8.8125899,MI,1719,53
Bussero,45.5379245,9.3720514,MI,1720,53
Busto Garolfo,45.5460642,8.8834087,MI,1721,53
Calvignasco,45.3317983,9.0208667,MI,1722,53
Cambiago,45.5733733,9.424166,MI,1723,53
Canegrate,45.5725563,8.9245733,MI,1724,53
Carpiano,45.341645,9.2746398,MI,1725,53
Carugate,45.5496097,9.3384342,MI,1726,53
Casorezzo,45.5242071,8.8990494,MI,1728,53
Cassano d'Adda,45.5265266,9.5205462,MI,1729,53
Cassina de' Pecchi,45.5199717,9.3644541,MI,1730,53
Cassinetta di Lugagnano,45.422133,8.9068009,MI,1731,53
Castano Primo,45.5512181,8.7763583,MI,1732,53
Cernusco sul Naviglio,45.5242093,9.3350275,MI,1733,53
Cerro al Lambro,45.3315755,9.3384644,MI,1734,53
Cerro Maggiore,45.5934519,8.9507118,MI,1735,53
Cesano Boscone,45.4459427,9.0932735,MI,1736,53
Cesate,45.5950169,9.0754417,MI,1737,53
Cinisello Balsamo,45.5583701,9.2135737,MI,1738,53
Cisliano,45.4460499,8.9860794,MI,1739,53
Cologno Monzese,45.5298028,9.2751666,MI,1740,53
Colturano,45.3819031,9.3492293,MI,1741,53
Corbetta,45.4675383,8.9218979,MI,1742,53
Cormano,45.5430188,9.1725422,MI,1743,53
Cornaredo,45.5019741,9.0258315,MI,1744,53
Corsico,45.4318534,9.108631,MI,1745,53
Cuggiono,45.5069354,8.8215738,MI,1746,53
Cusago,45.4466719,9.0335063,MI,1747,53
Cusano Milanino,45.5507396,9.1815704,MI,1748,53
Dairago,45.5681113,8.8661588,MI,1749,53
Dresano,45.3738734,9.3612188,MI,1750,53
Gaggiano,45.4057216,9.0345172,MI,1751,53
Garbagnate Milanese,45.5756135,9.0774868,MI,1752,53
Gessate,45.5554925,9.436755,MI,1753,53
Gorgonzola,45.5302681,9.4054116,MI,1754,53
Grezzago,45.5919841,9.4944242,MI,1755,53
Gudo Visconti,45.3732087,8.9992495,MI,1756,53
Inveruno,45.5129505,8.8536048,MI,1757,53
Inzago,45.5411539,9.4822498,MI,1758,53
Lacchiarella,45.3211788,9.1373739,MI,1759,53
Lainate,45.5714627,9.0271448,MI,1760,53
Legnano,45.5941442,8.9185499,MI,1761,53
Liscate,45.4813278,9.4094695,MI,1762,53
Locate di Triulzi,45.3576643,9.2211737,MI,1763,53
Magenta,45.4661112,8.8834256,MI,1764,53
Magnago,45.580604,8.8005253,MI,1765,53
Marcallo con Casone,45.4843765,8.8675014,MI,1766,53
Masate,45.5684287,9.4665083,MI,1767,53
Mediglia,45.4012305,9.323774,MI,1768,53
Melegnano,45.3575343,9.3242522,MI,1769,53
Melzo,45.4979382,9.4239803,MI,1770,53
Mesero,45.4982741,8.8538784,MI,1771,53
Milano,45.4667993,9.1903474,MI,1772,53
Morimondo,45.3537965,8.9560782,MI,1773,53
Motta Visconti,45.2901948,8.992998,MI,1774,53
Nerviano,45.5539941,8.97085,MI,1775,53
Nosate,45.5507878,8.72647,MI,1776,53
Novate Milanese,45.5328287,9.1358808,MI,1777,53
Noviglio,45.3560937,9.0707831,MI,1778,53
Opera,45.3779144,9.2114589,MI,1779,53
Ossona,45.5039944,8.8945827,MI,1780,53
Ozzero,45.3687765,8.9229259,MI,1781,53
Paderno Dugnano,45.5685583,9.1660677,MI,1782,53
Pantigliate,45.4396988,9.3539288,MI,1783,53
Parabiago,45.5580207,8.9523869,MI,1784,53
Paullo,45.4170261,9.3993961,MI,1785,53
Pero,45.5108107,9.0890221,MI,1786,53
Peschiera Borromeo,45.4317734,9.3110941,MI,1787,53
Pessano con Bornago,45.5502828,9.3876228,MI,1788,53
Pieve Emanuele,45.3511822,9.199687,MI,1789,53
Pioltello,45.4967807,9.3281379,MI,1790,53
Pogliano Milanese,45.5372635,8.9935507,MI,1791,53
Pozzo d'Adda,45.5739554,9.4995501,MI,1792,53
Pozzuolo Martesana,45.5124082,9.4519954,MI,1793,53
Pregnana Milanese,45.5174436,9.0100195,MI,1794,53
Rescaldina,45.6165548,8.947546,MI,1795,53
Rho,45.528912,9.040217,MI,1796,53
Robecchetto con Induno,45.5349511,8.7629165,MI,1797,53
Robecco sul Naviglio,45.4375702,8.8904062,MI,1798,53
Rodano,45.4731871,9.3570837,MI,1799,53
Rosate,45.3483542,9.0168051,MI,1800,53
Rozzano,45.3810236,9.152927,MI,1801,53
San Colombano al Lambro,45.1813305,9.4892504,MI,1802,53
San Donato Milanese,45.4169666,9.2661491,MI,1803,53
San Giorgio su Legnano,45.5765403,8.9164757,MI,1804,53
San Giuliano Milanese,45.4002326,9.2849245,MI,1805,53
Santo Stefano Ticino,45.4877867,8.9193522,MI,1806,53
San Vittore Olona,45.587611,8.9438239,MI,1807,53
San Zenone al Lambro,45.3264825,9.3583631,MI,1808,53
Sedriano,45.487561,8.9708821,MI,1809,53
Segrate,45.4908297,9.2929324,MI,1810,53
Senago,45.5752059,9.1174316,MI,1811,53
Sesto San Giovanni,45.5335358,9.2365125,MI,1812,53
Settala,45.4546902,9.3868814,MI,1813,53
Settimo Milanese,45.4807469,9.0567744,MI,1814,53
Solaro,45.6167799,9.0795197,MI,1815,53
Trezzano Rosa,45.5849868,9.4895411,MI,1816,53
Trezzano sul Naviglio,45.418681,9.0691358,MI,1817,53
Trezzo sull'Adda,45.6101605,9.5192441,MI,1818,53
Tribiano,45.4042024,9.3682631,MI,1819,53
Truccazzano,45.4835766,9.466262,MI,1820,53
Turbigo,45.5284775,8.7352084,MI,1821,53
Vanzago,45.5265009,9.0006544,MI,1822,53
Vaprio d'Adda,45.5764651,9.5334681,MI,1823,53
Vernate,45.3158837,9.0604256,MI,1824,53
Vignate,45.4963739,9.3770372,MI,1825,53
Vimodrone,45.5143338,9.2870922,MI,1826,53
Vittuone,45.4877796,8.9533035,MI,1827,53
Vizzolo Predabissi,45.357004,9.3465762,MI,1828,53
Zibido San Giacomo,45.3596685,9.1058771,MI,1829,53
Villa Cortese,45.5655071,8.8856896,MI,1830,53
Vanzaghello,45.5777658,8.785556,MI,1831,53
Baranzate,45.5273019,9.1138676,MI,1832,53
Vermezzo con Zelo,45.3911135,8.9807739,MI,1833,53
Adrara San Martino,45.6982079,9.9482498,BG,1834,11
Adrara San Rocco,45.7121816,9.9577147,BG,1835,11
Albano Sant'Alessandro,45.6864634,9.7662363,BG,1836,11
Albino,45.7606007,9.7969346,BG,1837,11
Almè,45.7400736,9.617567,BG,1838,11
Almenno San Bartolomeo,45.7483039,9.5782692,BG,1839,11
Almenno San Salvatore,45.7497475,9.5873847,BG,1840,11
Alzano Lombardo,45.7274799,9.7258064,BG,1841,11
Ambivere,45.7186028,9.5472255,BG,1842,11
Antegnate,45.4844481,9.7924514,BG,1843,11
Arcene,45.5755201,9.6136789,BG,1844,11
Ardesio,45.9382102,9.9296492,BG,1845,11
Arzago d'Adda,45.4797058,9.5642953,BG,1846,11
Averara,45.9885637,9.6311547,BG,1847,11
Aviatico,45.7928152,9.7689219,BG,1848,11
Azzano San Paolo,45.6619238,9.6763244,BG,1849,11
Azzone,45.9790397,10.112815,BG,1850,11
Bagnatica,45.6636822,9.7813789,BG,1851,11
Barbata,45.4749114,9.7762338,BG,1852,11
Bariano,45.5147841,9.7070151,BG,1853,11
Barzana,45.7336542,9.5670357,BG,1854,11
Bedulita,45.7906501,9.5509237,BG,1855,11
Berbenno,45.8117225,9.5683236,BG,1856,11
Bergamo,45.6944223,9.6684246,BG,1857,11
Berzo San Fermo,45.718179,9.9002969,BG,1858,11
Bianzano,45.7733885,9.917788,BG,1859,11
Blello,45.8369285,9.5643371,BG,1860,11
Bolgare,45.6318669,9.8202384,BG,1861,11
Boltiere,45.5997836,9.5782339,BG,1862,11
Bonate Sopra,45.6830967,9.5592365,BG,1863,11
Bonate Sotto,45.6663712,9.5613052,BG,1864,11
Borgo di Terzo,45.7209643,9.8914111,BG,1865,11
Bossico,45.8270213,10.0448686,BG,1866,11
Bottanuco,45.640819,9.5035943,BG,1867,11
Bracca,45.8226727,9.7078135,BG,1868,11
Branzi,46.0049613,9.7586803,BG,1869,11
Brembate,45.6038919,9.5551626,BG,1870,11
Brembate di Sopra,45.7162874,9.5775872,BG,1871,11
Brignano Gera d'Adda,45.5445211,9.6478964,BG,1872,11
Brumano,45.8546389,9.5006128,BG,1873,11
Brusaporto,45.6708349,9.7612609,BG,1874,11
Calcinate,45.6197787,9.8015521,BG,1875,11
Calcio,45.5076681,9.8550844,BG,1876,11
Calusco d'Adda,45.6883556,9.4713848,BG,1877,11
Calvenzano,45.4946388,9.5981576,BG,1878,11
Camerata Cornello,45.899572,9.6556647,BG,1879,11
Canonica d'Adda,45.5745705,9.541759,BG,1880,11
Capizzone,45.7845331,9.5685266,BG,1881,11
Capriate San Gervasio,45.6091756,9.5273011,BG,1882,11
Caprino Bergamasco,45.7464772,9.4815818,BG,1883,11
Caravaggio,45.4971433,9.6431062,BG,1884,11
Carobbio degli Angeli,45.6704645,9.8286259,BG,1885,11
Carona,46.0218522,9.7854936,BG,1886,11
Carvico,45.7068647,9.4798282,BG,1887,11
Casazza,45.7515221,9.9063154,BG,1888,11
Casirate d'Adda,45.492356,9.5665997,BG,1889,11
Casnigo,45.8163561,9.8674536,BG,1890,11
Cassiglio,45.9668711,9.6121273,BG,1891,11
Castelli Calepio,45.6415344,9.9022538,BG,1892,11
Castel Rozzone,45.5554434,9.6237377,BG,1893,11
Castione della Presolana,45.9077578,10.0364097,BG,1894,11
Castro,45.803814,10.0687741,BG,1895,11
Cavernago,45.6238105,9.7637336,BG,1896,11
Cazzano Sant'Andrea,45.8112321,9.8822313,BG,1897,11
Cenate Sopra,45.7117527,9.8241759,BG,1898,11
Cenate Sotto,45.698436,9.8239545,BG,1899,11
Cene,45.7794424,9.8255721,BG,1900,11
Cerete,45.867701,9.9949749,BG,1901,11
Chignolo d'Isola,45.6651336,9.5272274,BG,1902,11
Chiuduno,45.6469105,9.8537626,BG,1903,11
Cisano Bergamasco,45.7423945,9.4743616,BG,1904,11
Ciserano,45.5866775,9.6007264,BG,1905,11
Cividate al Piano,45.5542635,9.8297952,BG,1906,11
Clusone,45.8915811,9.9469733,BG,1907,11
Colere,45.973915,10.0857222,BG,1908,11
Cologno al Serio,45.5794165,9.706102,BG,1909,11
Colzate,45.8159686,9.8563115,BG,1910,11
Comun Nuovo,45.6232583,9.6647366,BG,1911,11
Corna Imagna,45.8315354,9.5444752,BG,1912,11
Cortenuova,45.5386316,9.7857977,BG,1913,11
Costa di Mezzate,45.6629362,9.7944556,BG,1914,11
Costa Valle Imagna,45.8008051,9.5056613,BG,1915,11
Costa Volpino,45.8279528,10.0939934,BG,1916,11
Covo,45.5011377,9.7685432,BG,1917,11
Credaro,45.6584568,9.9290128,BG,1918,11
Curno,45.6915509,9.6113226,BG,1919,11
Cusio,45.9894438,9.603479,BG,1920,11
Dalmine,45.6479735,9.6011735,BG,1921,11
Dossena,45.8791838,9.6969651,BG,1922,11
Endine Gaiano,45.7901961,9.9764933,BG,1923,11
Entratico,45.7054922,9.8747656,BG,1924,11
Fara Gera d'Adda,45.5508704,9.5307477,BG,1925,11
Fara Olivana con Sola,45.4951677,9.7497397,BG,1926,11
Filago,45.6362776,9.553853,BG,1927,11
Fino del Monte,45.8904648,9.9921548,BG,1928,11
Fiorano al Serio,45.799493,9.8416639,BG,1929,11
Fontanella,45.4722282,9.8004476,BG,1930,11
Fonteno,45.7578737,10.0192157,BG,1931,11
Foppolo,46.043955,9.7549792,BG,1932,11
Foresto Sparso,45.6951209,9.9136789,BG,1933,11
Fornovo San Giovanni,45.4961536,9.6751027,BG,1934,11
Fuipiano Valle Imagna,45.857113,9.5249739,BG,1935,11
Gandellino,45.9906695,9.9459534,BG,1936,11
Gandino,45.8112992,9.9040051,BG,1937,11
Gandosso,45.6623686,9.8898964,BG,1938,11
Gaverina Terme,45.7583512,9.8861576,BG,1939,11
Gazzaniga,45.7974417,9.8357261,BG,1940,11
Ghisalba,45.5916269,9.7544351,BG,1941,11
Gorlago,45.6765405,9.8291697,BG,1942,11
Gorle,45.7024374,9.7187797,BG,1943,11
Gorno,45.862812,9.8434004,BG,1944,11
Grassobbio,45.6548477,9.7277015,BG,1945,11
Gromo,45.9703982,9.9299019,BG,1946,11
Grone,45.7272216,9.9088218,BG,1947,11
Grumello del Monte,45.6340243,9.8697713,BG,1948,11
Isola di Fondra,45.9808019,9.7475073,BG,1949,11
Isso,45.4763004,9.758975,BG,1950,11
Lallio,45.6673243,9.6268813,BG,1951,11
Leffe,45.7998054,9.8852564,BG,1952,11
Lenna,45.9431966,9.6773027,BG,1953,11
Levate,45.6252312,9.6244717,BG,1954,11
Locatello,45.832231,9.5325495,BG,1955,11
Lovere,45.8128959,10.0716014,BG,1956,11
Lurano,45.5650345,9.6394422,BG,1957,11
Luzzana,45.7159874,9.8798652,BG,1958,11
Madone,45.6520037,9.5499489,BG,1959,11
Mapello,45.7094071,9.5457327,BG,1960,11
Martinengo,45.5716798,9.767369,BG,1961,11
Mezzoldo,46.012218,9.6656686,BG,1962,11
Misano di Gera d'Adda,45.4685564,9.6205996,BG,1963,11
Moio de' Calvi,45.9514541,9.7005843,BG,1964,11
Monasterolo del Castello,45.7632708,9.931356,BG,1965,11
Montello,45.6709202,9.805065,BG,1966,11
Morengo,45.5320083,9.7022098,BG,1967,11
Mornico al Serio,45.5905561,9.8087122,BG,1968,11
Mozzanica,45.4771014,9.6937561,BG,1969,11
Mozzo,45.7001858,9.6090251,BG,1970,11
Nembro,45.7435425,9.7589265,BG,1971,11
Olmo al Brembo,45.9695499,9.6489395,BG,1972,11
Oltre il Colle,45.892736,9.7668433,BG,1973,11
Oltressenda Alta,45.9144942,9.9442164,BG,1974,11
Oneta,45.8714357,9.8192769,BG,1975,11
Onore,45.8925905,10.0099781,BG,1976,11
Orio al Serio,45.6757413,9.6915135,BG,1977,11
Ornica,45.9889253,9.578455,BG,1978,11
Osio Sopra,45.6297797,9.5919246,BG,1979,11
Osio Sotto,45.6161896,9.5927084,BG,1980,11
Pagazzano,45.5336003,9.6733149,BG,1981,11
Paladina,45.7272197,9.6063799,BG,1982,11
Palazzago,45.7512358,9.5373058,BG,1983,11
Palosco,45.5834819,9.8378742,BG,1984,11
Parre,45.8770799,9.8918976,BG,1985,11
Parzanica,45.7381206,10.0358986,BG,1986,11
Pedrengo,45.6984384,9.7341356,BG,1987,11
Peia,45.7996841,9.8970757,BG,1988,11
Pianico,45.8110056,10.0435365,BG,1989,11
Piario,45.8959754,9.9264393,BG,1990,11
Piazza Brembana,45.9463278,9.67735,BG,1991,11
Piazzatorre,45.9900254,9.6855722,BG,1992,11
Piazzolo,45.979087,9.6722811,BG,1993,11
Pognano,45.5859076,9.6419948,BG,1994,11
Ponte Nossa,45.869554,9.8873956,BG,1995,11
Ponteranica,45.7307462,9.6547592,BG,1996,11
Ponte San Pietro,45.6989982,9.5869043,BG,1997,11
Pontida,45.7314869,9.5004532,BG,1998,11
Pontirolo Nuovo,45.5686792,9.5678078,BG,1999,11
Pradalunga,45.7479758,9.7843275,BG,2000,11
Predore,45.6806716,10.019504,BG,2001,11
Premolo,45.8686072,9.875335,BG,2002,11
Presezzo,45.6916308,9.5667055,BG,2003,11
Pumenengo,45.4803072,9.8677251,BG,2004,11
Ranica,45.7269735,9.7146052,BG,2005,11
Ranzanico,45.7886146,9.9361243,BG,2006,11
Riva di Solto,45.7741847,10.0393837,BG,2007,11
Rogno,45.8578311,10.1334397,BG,2008,11
Romano di Lombardia,45.5194573,9.7531694,BG,2009,11
Roncobello,45.9564504,9.7478239,BG,2010,11
Roncola,45.76926,9.561029,BG,2011,11
Rota d'Imagna,45.8341585,9.5115283,BG,2012,11
Rovetta,45.8911228,9.9849028,BG,2013,11
San Giovanni Bianco,45.874576,9.6518233,BG,2014,11
San Paolo d'Argon,45.6876437,9.8017486,BG,2015,11
San Pellegrino Terme,45.8383439,9.6633055,BG,2016,11
Santa Brigida,45.9812972,9.6234369,BG,2017,11
Sarnico,45.6680063,9.9583532,BG,2018,11
Scanzorosciate,45.7118778,9.7367965,BG,2019,11
Schilpario,46.0095781,10.1545159,BG,2020,11
Sedrina,45.7799251,9.6234583,BG,2021,11
Selvino,45.7807583,9.7501274,BG,2022,11
Seriate,45.6835442,9.7176423,BG,2023,11
Serina,45.8713949,9.7300916,BG,2024,11
Solto Collina,45.7822496,10.0259289,BG,2025,11
Songavazzo,45.8809276,9.9898181,BG,2026,11
Sorisole,45.7447495,9.6625371,BG,2027,11
Sotto il Monte Giovanni XXIII,45.7057066,9.4988747,BG,2028,11
Sovere,45.8241668,10.025527,BG,2029,11
Spinone al Lago,45.7647697,9.9215426,BG,2030,11
Spirano,45.5821794,9.6709873,BG,2031,11
Stezzano,45.6497646,9.6510249,BG,2032,11
Strozza,45.7742571,9.5778599,BG,2033,11
Suisio,45.659798,9.5012742,BG,2034,11
Taleggio,45.8940416,9.5648084,BG,2035,11
Tavernola Bergamasca,45.7092326,10.0453289,BG,2036,11
Telgate,45.6273016,9.8534241,BG,2037,11
Terno d'Isola,45.6836078,9.5314333,BG,2038,11
Torre Boldone,45.7160993,9.7077326,BG,2039,11
Torre de' Busi,45.78059,9.4849905,BG,2040,11
Torre de' Roveri,45.6995195,9.7722071,BG,2041,11
Torre Pallavicina,45.4414628,9.8626253,BG,2042,11
Trescore Balneario,45.695097,9.8427744,BG,2043,11
Treviglio,45.5217708,9.59265,BG,2044,11
Treviolo,45.6716265,9.6112711,BG,2045,11
Ubiale Clanezzo,45.7834034,9.6166922,BG,2046,11
Urgnano,45.5985486,9.6891779,BG,2047,11
Valbondione,46.0379983,10.0126199,BG,2048,11
Valbrembo,45.7164413,9.6083693,BG,2049,11
Valgoglio,45.9756081,9.9139424,BG,2050,11
Valleve,46.0282102,9.7432291,BG,2051,11
Valnegra,45.9491302,9.6894701,BG,2052,11
Valtorta,45.9775905,9.5350069,BG,2053,11
Vedeseta,45.8894705,9.5426616,BG,2054,11
Verdellino,45.6041921,9.6153419,BG,2055,11
Verdello,45.6065292,9.6270239,BG,2056,11
Vertova,45.8085966,9.8498727,BG,2057,11
Viadanica,45.6855366,9.9613245,BG,2058,11
Vigano San Martino,45.7261027,9.8957643,BG,2059,11
Vigolo,45.7164288,10.0263148,BG,2060,11
Villa d'Adda,45.7128416,9.4646143,BG,2061,11
Villa d'Almè,45.7463542,9.6179203,BG,2062,11
Villa di Serio,45.7201235,9.7341971,BG,2063,11
Villa d'Ogna,45.9075535,9.9305305,BG,2064,11
Villongo,45.6724023,9.9347514,BG,2065,11
Vilminore di Scalve,45.9979627,10.0952867,BG,2066,11
Zandobbio,45.6865507,9.852415,BG,2067,11
Zanica,45.6419635,9.6809736,BG,2068,11
Zogno,45.7948317,9.6679188,BG,2069,11
Costa Serina,45.8310164,9.7392232,BG,2070,11
Algua,45.8258476,9.7222294,BG,2071,11
Cornalba,45.8502552,9.7446449,BG,2072,11
Medolago,45.6727822,9.493542,BG,2073,11
Solza,45.6777791,9.4903091,BG,2074,11
Sant'Omobono Terme,45.8176911,9.514954,BG,2075,11
Val Brembilla,45.8293893,9.5988707,BG,2076,11
Acquafredda,45.3071716,10.4119005,BS,2077,17
Adro,45.6251503,9.9553539,BS,2078,17
Agnosine,45.6477188,10.3576845,BS,2079,17
Alfianello,45.2675884,10.14825,BS,2080,17
Anfo,45.7657598,10.4937981,BS,2081,17
Angolo Terme,45.8929707,10.1468777,BS,2082,17
Artogne,45.8483324,10.1645246,BS,2083,17
Azzano Mella,45.4548287,10.1135945,BS,2084,17
Bagnolo Mella,45.4290261,10.1792804,BS,2085,17
Bagolino,45.8212397,10.4689385,BS,2086,17
Barbariga,45.4039765,10.0567439,BS,2087,17
Barghe,45.6780039,10.4061274,BS,2088,17
Bassano Bresciano,45.3301945,10.126846,BS,2089,17
Bedizzole,45.5103648,10.4227785,BS,2090,17
Berlingo,45.5027756,10.0329538,BS,2091,17
Berzo Demo,46.0928851,10.3330086,BS,2092,17
Berzo Inferiore,45.9322715,10.2786735,BS,2093,17
Bienno,45.9355668,10.2954695,BS,2094,17
Bione,45.6740377,10.3405717,BS,2095,17
Borgo San Giacomo,45.3501202,9.9710178,BS,2096,17
Borgosatollo,45.4750819,10.2360359,BS,2097,17
Borno,45.9468066,10.2058081,BS,2098,17
Botticino,45.5433021,10.3232992,BS,2099,17
Bovegno,45.7923576,10.2722155,BS,2100,17
Bovezzo,45.5916399,10.2434938,BS,2101,17
Brandico,45.4542772,10.0509205,BS,2102,17
Braone,45.990225,10.3424307,BS,2103,17
Breno,45.9560254,10.3020412,BS,2104,17
Brescia,45.5399369,10.2191034,BS,2105,17
Brione,45.6407225,10.1498078,BS,2106,17
Caino,45.6125216,10.3157571,BS,2107,17
Calcinato,45.4574756,10.4165178,BS,2108,17
Calvagese della Riviera,45.5392259,10.4460235,BS,2109,17
Calvisano,45.3490817,10.3428756,BS,2110,17
Capo di Ponte,46.0300123,10.342802,BS,2111,17
Capovalle,45.754077,10.544843,BS,2112,17
Capriano del Colle,45.4551676,10.1264097,BS,2113,17
Capriolo,45.6398057,9.936023,BS,2114,17
Carpenedolo,45.3611924,10.4315259,BS,2115,17
Castegnato,45.5621236,10.1168384,BS,2116,17
Castelcovati,45.5060801,9.9431918,BS,2117,17
Castel Mella,45.4976045,10.1418818,BS,2118,17
Castenedolo,45.4713644,10.3004393,BS,2119,17
Casto,45.6950948,10.3205977,BS,2120,17
Castrezzato,45.5110933,9.9767156,BS,2121,17
Cazzago San Martino,45.5810203,10.0250151,BS,2122,17
Cedegolo,46.0757766,10.3499948,BS,2123,17
Cellatica,45.5826954,10.1777722,BS,2124,17
Cerveno,46.0023297,10.325508,BS,2125,17
Ceto,46.0023713,10.3518501,BS,2126,17
Cevo,46.0802053,10.3703765,BS,2127,17
Chiari,45.5368499,9.9305287,BS,2128,17
Cigole,45.3099375,10.1913683,BS,2129,17
Cimbergo,46.0238669,10.3630765,BS,2130,17
Cividate Camuno,45.9435022,10.2795478,BS,2131,17
Coccaglio,45.5623913,9.9769612,BS,2132,17
Collebeato,45.585679,10.2138879,BS,2133,17
Collio,45.8111772,10.3333331,BS,2134,17
Cologne,45.5856136,9.9430535,BS,2135,17
Comezzano-Cizzago,45.4725998,9.9490444,BS,2136,17
Concesio,45.6043794,10.2184612,BS,2137,17
Corte Franca,45.6372065,10.0069825,BS,2138,17
Corteno Golgi,46.1659846,10.2422415,BS,2139,17
Corzano,45.4442512,10.007791,BS,2140,17
Darfo Boario Terme,45.8834851,10.1804841,BS,2141,17
Dello,45.4165545,10.0797716,BS,2142,17
Desenzano del Garda,45.4685879,10.5415884,BS,2143,17
Edolo,46.1782472,10.3371123,BS,2144,17
Erbusco,45.5995255,9.9732414,BS,2145,17
Esine,45.9240316,10.2591767,BS,2146,17
Fiesse,45.2333432,10.3217037,BS,2147,17
Flero,45.4823616,10.1758922,BS,2148,17
Gambara,45.2538624,10.2977894,BS,2149,17
Gardone Riviera,45.6200986,10.5579951,BS,2150,17
Gardone Val Trompia,45.6891027,10.1822232,BS,2151,17
Gargnano,45.6898191,10.6599449,BS,2152,17
Gavardo,45.5867418,10.4346791,BS,2153,17
Ghedi,45.4022021,10.2769255,BS,2154,17
Gianico,45.8653245,10.1839735,BS,2155,17
Gottolengo,45.2917344,10.2715177,BS,2156,17
Gussago,45.5924321,10.1531485,BS,2157,17
Idro,45.737029,10.4740142,BS,2158,17
Incudine,46.2221313,10.3581937,BS,2159,17
Irma,45.7712068,10.2838456,BS,2160,17
Iseo,45.6598374,10.0500441,BS,2161,17
Isorella,45.3075657,10.3166576,BS,2162,17
Lavenone,45.7390221,10.4379684,BS,2163,17
Leno,45.3675035,10.2174187,BS,2164,17
Limone sul Garda,45.8133408,10.7929024,BS,2165,17
Lodrino,45.7177525,10.2776022,BS,2166,17
Lograto,45.4831912,10.0574386,BS,2167,17
Lonato del Garda,45.460897,10.484293,BS,2168,17
Longhena,45.4381457,10.0596561,BS,2169,17
Losine,45.9836025,10.317509,BS,2170,17
Lozio,45.9856512,10.2608911,BS,2171,17
Lumezzane,45.6501578,10.2617562,BS,2172,17
Maclodio,45.4767455,10.041783,BS,2173,17
Magasa,45.7814861,10.6164037,BS,2174,17
Mairano,45.4502054,10.0763078,BS,2175,17
Malegno,45.9507222,10.2724114,BS,2176,17
Malonno,46.1186804,10.3147832,BS,2177,17
Manerba del Garda,45.5501027,10.5514259,BS,2178,17
Manerbio,45.3543058,10.1390219,BS,2179,17
Marcheno,45.7060065,10.2141957,BS,2180,17
Marmentino,45.752837,10.2819435,BS,2181,17
Marone,45.7370996,10.0915623,BS,2182,17
Mazzano,45.5036093,10.3597906,BS,2183,17
Milzano,45.275544,10.2004387,BS,2184,17
Moniga del Garda,45.530523,10.5370433,BS,2185,17
Monno,46.2126317,10.3380378,BS,2186,17
Monte Isola,45.714995,10.0792971,BS,2187,17
Monticelli Brusati,45.634268,10.0978986,BS,2188,17
Montichiari,45.4122508,10.3952829,BS,2189,17
Montirone,45.4437779,10.2311107,BS,2190,17
Mura,45.713076,10.3420142,BS,2191,17
Muscoline,45.5643963,10.4603272,BS,2192,17
Nave,45.5846825,10.2790455,BS,2193,17
Niardo,45.9787401,10.3359001,BS,2194,17
Nuvolento,45.5478412,10.3832798,BS,2195,17
Nuvolera,45.5333319,10.3701592,BS,2196,17
Odolo,45.6485688,10.388246,BS,2197,17
Offlaga,45.3865277,10.1163079,BS,2198,17
Ome,45.6249029,10.1241605,BS,2199,17
Ono San Pietro,46.016465,10.3292443,BS,2200,17
Orzinuovi,45.4025022,9.9217669,BS,2201,17
Orzivecchi,45.4208931,9.9604542,BS,2202,17
Ospitaletto,45.5568683,10.0751704,BS,2203,17
Ossimo,45.9457654,10.2284763,BS,2204,17
Padenghe sul Garda,45.5094566,10.5083632,BS,2205,17
Paderno Franciacorta,45.5904159,10.0777619,BS,2206,17
Paisco Loveno,46.078887,10.2927575,BS,2207,17
Paitone,45.5530114,10.3999437,BS,2208,17
Palazzolo sull'Oglio,45.5984848,9.8858216,BS,2209,17
Paratico,45.6616033,9.95762,BS,2210,17
Paspardo,46.0298835,10.3710638,BS,2211,17
Passirano,45.5981604,10.0640274,BS,2212,17
Pavone del Mella,45.3033246,10.2080486,BS,2213,17
San Paolo,45.3713005,10.0246218,BS,2214,17
Pertica Alta,45.7426584,10.3442924,BS,2215,17
Pertica Bassa,45.753344,10.3730407,BS,2216,17
Pezzaze,45.7749413,10.2392164,BS,2217,17
Pian Camuno,45.8437283,10.1574811,BS,2218,17
Pisogne,45.8048131,10.1088982,BS,2219,17
Polaveno,45.6612042,10.1242484,BS,2220,17
Polpenazze del Garda,45.5471938,10.5046351,BS,2221,17
Pompiano,45.432786,9.987155,BS,2222,17
Poncarale,45.4605171,10.1739626,BS,2223,17
Ponte di Legno,46.2564891,10.5114591,BS,2224,17
Pontevico,45.2735997,10.0850301,BS,2225,17
Pontoglio,45.5706298,9.8526524,BS,2226,17
Pozzolengo,45.4028612,10.6270948,BS,2227,17
Pralboino,45.2680966,10.2148817,BS,2228,17
Preseglie,45.6653532,10.39293,BS,2229,17
Prevalle,45.5470618,10.4212165,BS,2230,17
Provaglio d'Iseo,45.6377841,10.0421498,BS,2231,17
Provaglio Val Sabbia,45.6885853,10.4339283,BS,2232,17
Puegnago del Garda,45.5704793,10.5099115,BS,2233,17
Quinzano d'Oglio,45.3136885,10.0087226,BS,2234,17
Remedello,45.2788984,10.371964,BS,2235,17
Rezzato,45.5134187,10.3184925,BS,2236,17
Roccafranca,45.4641478,9.9119847,BS,2237,17
Rodengo Saiano,45.6005948,10.109296,BS,2238,17
Roè Volciano,45.6240172,10.4940402,BS,2239,17
Roncadelle,45.5280683,10.1513088,BS,2240,17
Rovato,45.5680921,9.997638,BS,2241,17
Rudiano,45.4885241,9.8842323,BS,2242,17
Sabbio Chiese,45.6567709,10.4155328,BS,2243,17
Sale Marasino,45.7141013,10.1128875,BS,2244,17
Salò,45.6071451,10.5323116,BS,2245,17
San Felice del Benaco,45.5827585,10.5537724,BS,2246,17
San Gervasio Bresciano,45.3060226,10.1496704,BS,2247,17
San Zeno Naviglio,45.4913482,10.2145537,BS,2248,17
Sarezzo,45.653791,10.2029771,BS,2249,17
Saviore dell'Adamello,46.0805051,10.3982077,BS,2250,17
Sellero,46.0687366,10.3381184,BS,2251,17
Seniga,45.2436159,10.1771603,BS,2252,17
Serle,45.5617507,10.3688675,BS,2253,17
Sirmione,45.4623202,10.6094685,BS,2254,17
Soiano del Lago,45.5366778,10.513633,BS,2255,17
Sonico,46.1633289,10.3521123,BS,2256,17
Sulzano,45.6907467,10.1027822,BS,2257,17
Tavernole sul Mella,45.7480845,10.2402485,BS,2258,17
Temù,46.249768,10.4704718,BS,2259,17
Tignale,45.7395252,10.721851,BS,2260,17
Torbole Casaglia,45.5083158,10.1050264,BS,2261,17
Toscolano-Maderno,45.6416831,10.6062475,BS,2262,17
Travagliato,45.5233823,10.080219,BS,2263,17
Tremosine sul Garda,45.7669664,10.753811,BS,2264,17
Trenzano,45.4759571,10.0157115,BS,2265,17
Treviso Bresciano,45.712751,10.4619966,BS,2266,17
Urago d'Oglio,45.5133406,9.8703536,BS,2267,17
Vallio Terme,45.6092339,10.3957802,BS,2268,17
Valvestino,45.7618515,10.5948237,BS,2269,17
Verolanuova,45.3257798,10.0766529,BS,2270,17
Verolavecchia,45.3305251,10.0518126,BS,2271,17
Vestone,45.7096126,10.4036957,BS,2272,17
Vezza d'Oglio,46.240137,10.4000816,BS,2273,17
Villa Carcina,45.6314273,10.1952722,BS,2274,17
Villachiara,45.3568768,9.9296057,BS,2275,17
Villanuova sul Clisi,45.6016703,10.4537094,BS,2276,17
Vione,46.2488249,10.4477983,BS,2277,17
Visano,45.3162635,10.3690838,BS,2278,17
Vobarno,45.6470038,10.4965582,BS,2279,17
Zone,45.7622084,10.1166138,BS,2280,17
Piancogno,45.9188162,10.2205143,BS,2281,17
Alagna,45.1692847,8.8894522,PV,2282,73
Albonese,45.292853,8.7061279,PV,2283,73
Albuzzano,45.1875481,9.2771775,PV,2284,73
Arena Po,45.094432,9.3618697,PV,2285,73
Badia Pavese,45.1211743,9.468549,PV,2286,73
Bagnaria,44.8260717,9.1243389,PV,2287,73
Barbianello,45.0757026,9.2059973,PV,2288,73
Bascapè,45.3046469,9.3154215,PV,2289,73
Bastida Pancarana,45.086303,9.0915536,PV,2290,73
Battuda,45.2735783,9.0774076,PV,2291,73
Belgioioso,45.1627375,9.3160264,PV,2292,73
Bereguardo,45.2574486,9.0244955,PV,2293,73
Borgarello,45.2394306,9.1406891,PV,2294,73
Borgo Priolo,44.9665058,9.1484105,PV,2295,73
Borgoratto Mormorolo,44.9301101,9.1932211,PV,2296,73
Borgo San Siro,45.2348379,8.9126928,PV,2297,73
Bornasco,45.2663794,9.218355,PV,2298,73
Bosnasco,45.0639979,9.3568954,PV,2299,73
Brallo di Pregola,44.7384499,9.2818906,PV,2300,73
Breme,45.1279025,8.6233204,PV,2301,73
Bressana Bottarone,45.0736421,9.1350806,PV,2302,73
Broni,45.0619693,9.2612981,PV,2303,73
Calvignano,44.9826696,9.1688433,PV,2304,73
Campospinoso Albaredo,45.0936042,9.2466949,PV,2305,73
Candia Lomellina,45.1747378,8.5981645,PV,2306,73
Canneto Pavese,45.0511568,9.2809802,PV,2307,73
Carbonara al Ticino,45.165318,9.0590497,PV,2308,73
Casanova Lonati,45.0944157,9.213736,PV,2309,73
Casatisma,45.0456877,9.1309639,PV,2310,73
Casei Gerola,45.0063063,8.9270731,PV,2311,73
Casorate Primo,45.3119272,9.018139,PV,2312,73
Cassolnovo,45.3658308,8.8089459,PV,2313,73
Castana,45.0270248,9.271898,PV,2314,73
Casteggio,45.012398,9.1249487,PV,2315,73
Castelletto di Branduzzo,45.0701867,9.0976664,PV,2316,73
Castello d'Agogna,45.2360065,8.6893785,PV,2317,73
Castelnovetto,45.2543773,8.611399,PV,2318,73
Cava Manara,45.1388744,9.1071057,PV,2319,73
Cecima,44.8478108,9.081686,PV,2320,73
Ceranova,45.2600141,9.2422605,PV,2321,73
Ceretto Lomellina,45.2448215,8.6724128,PV,2322,73
Cergnago,45.1971732,8.7690863,PV,2323,73
Certosa di Pavia,45.2543468,9.1274166,PV,2324,73
Cervesina,45.061173,9.017759,PV,2325,73
Chignolo Po,45.1525153,9.4882052,PV,2326,73
Cigognola,45.0330934,9.2437713,PV,2327,73
Cilavegna,45.3104323,8.7436772,PV,2328,73
Codevilla,44.963997,9.055495,PV,2329,73
